municipio,poblacion_total,hombres,mujeres,densidad,superficie_km2,poblacion_menor_35,poblacion_menor_65,poblacion_65_mas,renta_bruta_media,alquiler_m2_colectiva,alquiler_m2_unifamiliar,num_bancos,longitud_bancos,latitud_bancos
A Baña,3389.0,1597.0,1792.0,34.55052733604496,98.08822791727448,760.0,2180.0,1325.0,23.194,0.0,0.0,0.0,0.0,0.0
A Bola,1075.0,508.0,567.0,30.7990266898203,34.903700393730595,208.0,663.0,536.0,19.074,0.0,0.0,1.0,-7.9120198,42.1564424
A Cañiza,5115.0,2512.0,2603.0,48.69775115325253,105.0356511105209,1441.0,3612.0,1561.0,20.975,0.742729832,0.710382514,1.0,-8.276041,42.2127485
A Capela,1242.0,617.0,625.0,21.52306152337824,57.70554521952863,296.0,836.0,402.0,26.737,0.0,0.0,37.0,-8.145621,42.93471958918919
A Coruña,245468.0,113806.0,131662.0,6364.888022278336,38.56595734925966,74464.0,185187.0,59663.0,33.057,6.341972839193549,0.24579141048387096,2.0,-8.51054015,43.192682700000006
A Estrada,20261.0,9736.0,10525.0,72.17121514546173,280.7351928211791,6024.0,14932.0,5729.0,23.865,1.186745952105263,0.15405882105263158,40.0,-7.897881334999999,42.816472235
A Fonsagrada,3328.0,1751.0,1577.0,7.590808397144948,438.42497740447857,671.0,2143.0,1446.0,19.939,0.9785345733333334,0.7555106566666666,1.0,-7.0676605,43.1248311
A Guarda,9991.0,4896.0,5095.0,477.9872766412933,20.90223001374526,3223.0,7805.0,2208.0,24.585,3.16657707375,0.0,1.0,-8.8742166,41.9012451
A Gudiña,1232.0,625.0,607.0,7.193416628233302,171.26771097402408,301.0,862.0,446.0,20.73,0.0,3.14926661,1.0,-7.1403516,42.0605483
A Illa de Arousa,4951.0,2435.0,2516.0,843.3938879825445,5.8703294754045805,1676.0,3943.0,1015.0,18.933,5.06873648,0.0,0.0,0.0,0.0
A Lama,2410.0,1195.0,1215.0,21.563309712790616,111.7639189947947,570.0,1570.0,860.0,19.648,0.0,0.0,61.0,-7.733063849180327,42.68471823278689
A Laracha,11521.0,5669.0,5852.0,91.44153580180844,125.99307195551444,3255.0,8357.0,2945.0,25.63,1.5737127027272726,0.4649021818181818,1.0,-8.5816182,43.2484663
A Merca,1939.0,968.0,971.0,38.02828716578168,50.98836010012925,354.0,1123.0,788.0,21.877,0.0,1.44230769,1.0,-7.9049545,42.222633
A Mezquita,1006.0,528.0,478.0,9.647647137151983,104.2741287796492,234.0,620.0,419.0,19.833,0.0,0.0,1.0,-7.0451474,42.0114543
A Pastoriza,2918.0,1474.0,1444.0,16.675260945076666,174.9897653542587,748.0,1993.0,1063.0,21.966,0.0,0.0,0.0,0.0,0.0
A Peroxa,1826.0,906.0,920.0,33.49310226972829,54.51868821510672,346.0,1096.0,775.0,20.565,0.0,0.0,12.0,-8.225431491666667,42.70659789166667
A Pobra de Trives,2015.0,1000.0,1015.0,23.93237176523878,84.1955832779909,482.0,1359.0,759.0,23.508,1.31313667,0.0,1.0,-7.2547833,42.3405898
A Pobra do Brollón,1615.0,794.0,821.0,9.138827850374428,176.7185055284559,266.0,871.0,814.0,21.871,0.0,0.0,1.0,-7.3921684,42.5564957
A Pobra do Caramiñal,9291.0,4543.0,4748.0,287.01050660088896,32.37163722692521,2894.0,7218.0,2172.0,25.581,2.4021207185714286,0.5,1.0,-8.9402045,42.6046249
A Pontenova,2207.0,1058.0,1149.0,16.246235762527967,135.84685291164232,496.0,1459.0,824.0,23.019,1.12092598,0.0,11.0,-8.301850345454547,43.021062163636365
A Rúa,4245.0,2109.0,2136.0,118.21328033920476,35.9096709592972,1166.0,3042.0,1317.0,26.702,1.7448162320000002,0.0,44.0,-8.025853072727273,43.08004948181818
Abadín,2297.0,1144.0,1153.0,11.745771388858964,195.55974009325075,462.0,1389.0,1039.0,18.664,0.0,0.0,2.0,-7.59050455,43.30941155
Abanilla,6116.0,3099.0,3017.0,25.95725119164008,235.6181690752274,1979.0,4499.0,1564.0,22.315,0.52868077,0.38232386166666665,1.0,-1.0392384,38.2058263
Abarán,13066.0,6531.0,6535.0,113.58034174100013,115.03751265157048,5041.0,10785.0,2245.0,21.57,1.74554629,0.5151806,1.0,-1.3971219,38.2058512
Abegondo,5494.0,2701.0,2793.0,65.48556953419923,83.8963460053716,1418.0,3819.0,1635.0,27.317,0.0,1.916178535,1.0,-8.2887175,43.2273169
Abenójar,1339.0,691.0,648.0,3.162260031032358,423.4313392510189,421.0,984.0,411.0,19.356,0.0,0.0,1.0,-4.3557024,38.8794942
Abla,1258.0,646.0,612.0,27.80451342802707,45.24445296467337,378.0,891.0,344.0,18.721,0.0,0.0,1.0,-2.7792318,37.1416926
Abrera,12620.0,6373.0,6247.0,630.9373865978188,20.00198477387808,4757.0,10498.0,1836.0,34.28,5.538295231428571,3.7657396100000002,1.0,1.9024126,41.5204464
Abrucena,1208.0,639.0,569.0,14.436421004209068,83.67724934371176,331.0,833.0,317.0,18.012,0.0,0.0,1.0,-2.797482,37.1332098
Aceuchal,5467.0,2725.0,2742.0,86.6703058819413,63.07812052084968,2174.0,4431.0,1030.0,19.702,0.0,0.0,1.0,-6.486997,38.6479821
Adamuz,4141.0,2122.0,2019.0,12.362027143641054,334.9774233532648,1524.0,3314.0,871.0,16.924,0.0,0.0,1.0,-4.5245275,38.0269999
Ademuz,1027.0,556.0,471.0,10.237862671576222,100.31390661756971,346.0,785.0,261.0,19.863,1.98019802,0.0,1.0,-1.2856816,40.0631649
Ador,1772.0,931.0,841.0,128.1239775409735,13.830354270989767,415.0,1076.0,317.0,25.172,0.0,3.18610022,1.0,-0.2242702,38.9195136
Adra,25501.0,13058.0,12443.0,284.3106362345216,89.69414699970909,10527.0,21405.0,3454.0,20.359,2.1436112325,0.0,1.0,-3.0203617,36.748834
Agolada,2228.0,1115.0,1113.0,15.068523294355389,147.85788603682224,477.0,1432.0,938.0,20.217,0.0,0.0,1.0,-8.0184167,42.762592
Agoncillo,1153.0,636.0,517.0,33.04359509596844,34.89329767694298,341.0,860.0,245.0,25.847,3.62745098,3.28210425,1.0,-2.2913654,42.4451704
Agost,4906.0,2474.0,2432.0,73.62182172861507,66.63785118065277,1672.0,3785.0,928.0,23.022,2.9567661533333336,2.1969252966666666,1.0,-0.6396687,38.436906
Agramunt,5464.0,2763.0,2701.0,68.84256073510433,79.3695054578902,1963.0,4327.0,1066.0,29.313,3.8876237799999998,0.7575757575,1.0,1.0985119,41.787076
Ágreda,3006.0,1546.0,1460.0,18.23916152542223,164.8102077395475,992.0,2209.0,799.0,26.734,3.390366415,1.140625,1.0,-1.9214614,41.8548465
Aguadulce,2022.0,999.0,1023.0,147.66723078136883,13.692949947667843,771.0,1610.0,416.0,17.897,0.0,0.0,2.0,-3.78079275,37.0327131
Agudo,1638.0,824.0,814.0,7.123023058942915,229.95854238370043,512.0,1121.0,566.0,19.156,0.0,0.0,1.0,-4.8698279,38.9820148
Aguilar de Campoo,6711.0,3232.0,3479.0,28.518942760417257,235.31727863749927,2170.0,5323.0,1519.0,27.5,4.452221571666667,1.0057471266666667,1.0,-4.2605438,42.7928369
Aguilar de la Frontera,13398.0,6684.0,6714.0,80.68293402784226,166.0574217018011,5213.0,11024.0,2414.0,19.114,0.27936775181818185,0.0,1.0,-4.6567166,37.5146967
Águilas,35956.0,17929.0,18027.0,142.75719459275845,251.86821653767575,14045.0,29233.0,5798.0,23.386,3.393694633,0.4159484136666666,1.0,-1.5804922,37.4099628
Agullent,2369.0,1184.0,1185.0,145.88300361275964,16.239040473065746,877.0,1979.0,434.0,25.982,2.55840823,3.22894998,1.0,-0.5475331,38.8232056
Ahigal,1393.0,711.0,682.0,26.7516393465282,52.07157520164394,382.0,962.0,439.0,15.354,0.0,0.0,1.0,-6.1880415,40.1890481
Aielo de Malferit,4592.0,2320.0,2272.0,171.73225047876633,26.73929903788091,1804.0,3873.0,773.0,23.353,1.32743363,0.0,1.0,-0.5911695,38.8803632
Aiguafreda,2556.0,1239.0,1317.0,322.66193587679714,7.921603746206879,807.0,1939.0,562.0,34.846,5.68692424,5.13389431,2.0,2.7381929,41.86747675
Aigües,1049.0,544.0,505.0,56.78568232678001,18.47296637140686,288.0,731.0,205.0,60.883,0.0,4.7826087,1.0,-0.3634258,38.500265
Aínsa-Sobrarbe,2312.0,1159.0,1153.0,8.118880324628375,284.7683310451835,762.0,1781.0,370.0,29.123,5.11856137,3.42105263,0.0,0.0,0.0
Ainzón,1067.0,548.0,519.0,26.37104552242164,40.461042740713374,341.0,819.0,266.0,23.836,0.0,3.125,1.0,-1.5198464,41.816236
Aitona,2493.0,1311.0,1182.0,37.24718194933045,66.93123800322331,907.0,1950.0,595.0,21.467,3.900212025,1.348039215,1.0,0.4591083,41.4939531
Ajalvir,4676.0,2437.0,2239.0,236.17491335819136,19.798885213977872,1827.0,4093.0,466.0,32.885,8.890980405,6.388557255,1.0,-3.4807818,40.5342302
Ajofrín,2236.0,1128.0,1108.0,63.69574329184002,35.10438664252861,802.0,1768.0,476.0,22.463,0.0,1.43072289,1.0,-3.98115,39.7111302
Alaejos,1380.0,740.0,640.0,13.465170487699355,102.48663403561446,357.0,972.0,410.0,21.177,0.0,0.0,1.0,-5.2160343,41.3074062
Alagón,7121.0,3568.0,3553.0,294.3652896512373,24.19103151882116,2565.0,5838.0,1256.0,26.847,4.93029981,3.4708147,1.0,-1.1188807,41.7711121
Alaior,9477.0,4776.0,4701.0,86.31382320164798,109.7970133689902,3360.0,7495.0,1517.0,29.822,6.198998926,4.650833308,1.0,4.1397673,39.9337077
Alameda,5453.0,2765.0,2688.0,83.7487709455757,65.11140328905415,2154.0,4528.0,838.0,18.43,0.0,0.0,1.0,-4.6581597,37.207778
Alameda de la Sagra,3757.0,1960.0,1797.0,113.87256845817436,32.993020627087674,1450.0,2982.0,580.0,23.409,4.3988769649999995,1.576541275,1.0,-3.7968786,40.013303
Alange,1850.0,948.0,902.0,11.542446934973876,160.2779731561475,684.0,1476.0,404.0,18.853,0.0,0.0,1.0,-6.2472718,38.7851386
Alanís,1716.0,854.0,862.0,6.104384249042901,281.1094338088317,625.0,1386.0,360.0,17.99,0.0,0.0,1.0,-5.7132497,38.0365938
Alaquàs,29649.0,14501.0,15148.0,7599.537167950102,3.901421803032976,10776.0,24024.0,5317.0,25.623,5.308961363333333,0.23688475523809527,1.0,-0.46098,39.4572928
Alaró,5741.0,2777.0,2964.0,125.56552406087349,45.72114872245342,2054.0,4642.0,852.0,37.789,6.64161641,6.254087076666667,1.0,2.7907216,39.7061528
Alba de Tormes,5159.0,2586.0,2573.0,111.0216838696405,46.468399867341205,1759.0,4121.0,1045.0,24.241,2.9213527366666665,0.0,1.0,-5.514271,40.8266317
Albacete,172722.0,84365.0,88357.0,153.25933477606057,1126.9917114828788,67232.0,145295.0,27755.0,28.2185,5.099009379912281,0.351007516491228,1.0,-1.8559154,38.9950921
Albaida,5975.0,2962.0,3013.0,168.7174603068004,35.414236257082685,2103.0,4751.0,1157.0,26.937,2.970049818571429,0.0,1.0,-0.5181895,38.838669
Albaida del Aljarafe,3221.0,1589.0,1632.0,294.9218426198075,10.921537622943331,1444.0,2869.0,324.0,20.823,0.0,2.048369695,1.0,-6.1650572,37.425499
Albal,16646.0,8319.0,8327.0,2270.487468573256,7.331465260391912,6390.0,14226.0,2044.0,26.602,4.810099212142857,0.55414798,1.0,-0.4150821,39.3956438
Albaladejo,1099.0,561.0,538.0,22.454786422468207,48.942794615064486,323.0,812.0,373.0,16.888,0.0,0.0,1.0,-2.806439,38.617876
Albalat de la Ribera,3368.0,1701.0,1667.0,234.63268915248648,14.354351101568612,1149.0,2656.0,673.0,23.127,3.20732647,1.35820537,1.0,-0.3866468,39.2012627
Albalat dels Sorells,4110.0,2014.0,2096.0,888.8526454773586,4.623938535720646,1369.0,3200.0,744.0,29.269,4.69223325,0.0,1.0,-0.3461912,39.5436955
Albalat dels Tarongers,1324.0,699.0,625.0,62.02733051820174,21.34542932830998,364.0,981.0,221.0,30.965,0.0,4.80289421,1.0,-0.3371981,39.7028908
Albalate de Cinca,1125.0,617.0,508.0,25.43405757477757,44.23203009163742,353.0,838.0,264.0,24.962,0.0,2.60173988,1.0,0.1452258,41.7220639
Albalate del Arzobispo,1977.0,1013.0,964.0,9.611840380059617,205.68381515171788,628.0,1470.0,534.0,24.798,0.0,0.0,1.0,-0.5119111,41.1218738
Albarracín,990.0,505.0,485.0,2.188207695935925,452.425060856284,339.0,769.0,247.0,25.333,4.32627974,3.53238265,1.0,-1.4442792,40.4072825
Albatàrrec,2224.0,1148.0,1076.0,207.94343659802917,10.69521614331673,970.0,2063.0,272.0,27.752,4.9382716,2.91289593,1.0,0.6059163,41.5733194
Albatera,12714.0,6420.0,6294.0,206.58827116485017,61.542700020247885,5214.0,10260.0,1782.0,21.939,3.24617981,0.0,1.0,-0.8695616,38.1786069
Albelda de Iregua,3484.0,1794.0,1690.0,151.2513667078863,23.034502602073637,1237.0,2738.0,724.0,25.916,3.69131737,0.0,1.0,-2.4736796,42.3560509
Alberic,10571.0,5258.0,5313.0,394.553176543867,26.79233276639125,4059.0,8656.0,1900.0,24.264,2.7919476385714286,0.6838905771428572,1.0,-0.5201838,39.1164369
Alberite,2518.0,1287.0,1231.0,124.44234919841786,20.2342692517413,846.0,1946.0,487.0,24.63,4.0,2.66666667,1.0,-2.4392907,42.4060734
Albesa,1561.0,847.0,714.0,41.60589476090714,37.51872202173414,522.0,1212.0,364.0,26.498,4.5764526,2.5,1.0,0.6591801,41.7513409
Albinyana,2504.0,1294.0,1210.0,128.28333661683652,19.519292731518824,805.0,1881.0,490.0,26.517,0.0,5.84711009,1.0,1.486748,41.2454739
Albocàsser,1253.0,633.0,620.0,15.225794228885295,82.29455758852286,392.0,874.0,360.0,23.032,3.05361305,2.1601581,1.0,0.0241661,40.3577713
Albolote,19128.0,9428.0,9700.0,243.40376938871844,78.58547157276097,7860.0,16461.0,2285.0,29.146,5.126859339,2.268173151,1.0,-3.6570779,37.2306219
Alborache,1283.0,660.0,623.0,46.94142329004564,27.331936487577103,389.0,888.0,239.0,25.006,3.38844026,4.73090278,1.0,-0.7711311,39.3917086
Albox,12070.0,6186.0,5884.0,71.72740185595485,168.2759961700459,4472.0,9358.0,2338.0,22.066,2.5942351883333337,1.1643122166666666,1.0,-2.1455544,37.3880282
Albudeite,1388.0,705.0,683.0,81.2611926122955,17.08072396404854,510.0,1084.0,277.0,19.94,0.0,0.0,1.0,-1.3854647,38.0275699
Albuixech,4189.0,2030.0,2159.0,960.6243846447958,4.360705460905972,1326.0,3166.0,817.0,28.673,4.748008394999999,1.769491785,1.0,-0.3247783,39.5442852
Albuñol,7473.0,4135.0,3338.0,118.34918618003628,63.14365346485654,3237.0,6202.0,926.0,18.568,4.05944599,1.1695906433333334,1.0,-3.2035944,36.7913663
Alburquerque,5245.0,2614.0,2631.0,7.249710832735666,723.4771318486931,1858.0,4079.0,1261.0,19.086,0.6185567,1.262127945,1.0,-6.9999295,39.2190169
Alcalá de Guadaíra,75546.0,37521.0,38025.0,265.140842221868,284.92781182607706,30745.0,64776.0,10480.0,28.271,4.2928490875,1.9329281922916668,1.0,-5.8408396,37.3397709
Alcalá de Henares,195982.0,95061.0,100921.0,2222.1104779392454,88.19633494629439,71904.0,160356.0,33395.0,32.213,8.24246127112,0.85781361208,1.0,-3.363981,40.481954
Alcalá de los Gazules,5245.0,2697.0,2548.0,10.94820639313973,479.0739059583839,2093.0,4427.0,815.0,21.861,2.9496506025,0.0,1.0,-5.7238891,36.4618805
Alcalà de Xivert,6691.0,3427.0,3264.0,39.93844799506407,167.53279949253238,2211.0,5149.0,1530.0,23.389,3.169788375,2.2040604875,1.0,0.2252763,40.3041662
Alcalá del Júcar,1153.0,621.0,532.0,7.852916216781925,146.82443670238112,323.0,810.0,389.0,20.224,3.75621646,0.0,1.0,-1.4289945,39.1928901
Alcalá del Río,12264.0,6215.0,6049.0,148.52099707951777,82.57418305260828,4974.0,10239.0,1688.0,23.591,2.70762334,2.6428540514285714,1.0,-5.982018,37.5180979
Alcalá del Valle,5031.0,2526.0,2505.0,107.2840886857082,46.89418590988323,1951.0,4182.0,941.0,17.293,0.0,0.0,1.0,-5.1720759,36.9044094
Alcalá la Real,21623.0,10662.0,10961.0,82.73136191146712,261.3640039328654,7748.0,16892.0,4816.0,21.049,1.845094265625,0.1534192675,1.0,-3.922384,37.4619794
Alcalalí,1336.0,667.0,669.0,92.79474865917912,14.397366438341493,259.0,738.0,560.0,21.896,0.0,5.0,1.0,-0.0414327,38.7496486
Alcanar,9579.0,4862.0,4717.0,203.7568124107942,47.01192508198339,3222.0,7402.0,2000.0,25.908,2.651708118333333,1.9761817183333334,1.0,0.4808409,40.5438634
Alcañices,1042.0,553.0,489.0,18.95261880751678,54.97920950041655,272.0,714.0,360.0,21.525,3.09859155,2.35337484,1.0,-6.3471637,41.6996962
Alcañiz,16029.0,7994.0,8035.0,33.951391459671385,472.11614342934337,5946.0,12949.0,2990.0,27.476,4.152587543636364,1.0319370436363635,1.0,-0.1299694,41.0506674
Alcántara,1386.0,689.0,697.0,2.5108294328380683,552.0088230100765,397.0,1057.0,423.0,21.492,0.0,0.0,1.0,-6.8869875,39.7206785
Alcantarilla,42559.0,21073.0,21486.0,2619.9267282921064,16.2443474240761,17464.0,35892.0,5730.0,25.392,3.8046839738461538,0.5139861038461538,2.0,-1.8269166,38.1338337
Alcàntera de Xúquer,1402.0,701.0,701.0,421.6858152157965,3.3247502036143435,435.0,1009.0,288.0,20.659,2.96703297,0.0,1.0,-0.5620285,39.068793
Alcaracejos,1481.0,716.0,765.0,8.420803378407792,175.87395566051418,468.0,1045.0,428.0,21.557,0.0,2.4931694,1.0,-4.9673657,38.3893241
Alcaraz,1310.0,682.0,628.0,3.532148011604136,370.8791352163806,466.0,1059.0,346.0,21.988,3.38581736,1.98013651,1.0,-2.4910801,38.6647483
Alcarràs,9678.0,5070.0,4608.0,84.25012233103571,114.87223676629438,3955.0,8264.0,1158.0,26.498,5.2324684225,4.52886025,1.0,0.5240396,41.5632578
Alcàsser,10266.0,5145.0,5121.0,1140.1773514513718,9.003862413976254,3834.0,8368.0,1540.0,26.943,4.049888688333334,1.1698193716666667,1.0,-0.4446741,39.3677124
Alcaucín,2366.0,1210.0,1156.0,52.36164069348225,45.18574988607088,621.0,1486.0,753.0,19.867,0.0,3.50339439,1.0,-4.1140053,36.9025563
Alcaudete,10434.0,5105.0,5329.0,44.0547071305344,236.84188772573123,3875.0,8225.0,2333.0,19.261,0.7407006766666666,0.0,1.0,-4.0812937,37.5881403
Alcaudete de la Jara,1644.0,832.0,812.0,10.530489746652218,156.1180951268339,551.0,1222.0,481.0,18.499,0.0,0.0,1.0,-4.8678158,39.788931
Alcázar de San Juan,30548.0,14876.0,15672.0,45.8332899176449,666.502449527186,11660.0,25350.0,5336.0,28.899,3.312776416086957,1.7069481104347826,1.0,-3.2101376,39.3899806
Alcobendas,116589.0,55719.0,60870.0,2576.369996713124,45.253205148616736,46173.0,97574.0,18463.0,60.576,10.681617661343283,3.445025360597015,1.0,-3.6358494,40.5400082
Alcolea de Calatrava,1363.0,693.0,670.0,19.27263796154992,70.72202584406283,477.0,1078.0,377.0,22.628,0.0,0.0,1.0,-4.1152469,38.9861733
Alcolea de Cinca,1200.0,654.0,546.0,14.416209120448087,83.2396360217825,372.0,878.0,282.0,25.874,3.38569191,0.0,1.0,0.1172654,41.721179
Alcolea del Río,3348.0,1664.0,1684.0,66.73028063484463,50.17212528028498,1351.0,2795.0,592.0,17.606,0.0,0.0,1.0,-5.6684391,37.6145948
Alcoletge,3492.0,1843.0,1649.0,210.97187244273132,16.551969509337834,1387.0,2992.0,427.0,28.703,5.11026678,2.12264151,1.0,0.6944444,41.6472222
Alconchel,1654.0,833.0,821.0,5.607366824091359,294.96910972433506,615.0,1330.0,374.0,18.144,0.0,0.0,2.0,-7.0709577,38.51668655
Alcorcón,170817.0,81998.0,88819.0,5084.468139198022,33.5958443092817,57682.0,132059.0,37443.0,32.227,9.230539342750001,0.07427169616666666,1.0,-3.8284295,40.3492998
Alcorisa,3293.0,1685.0,1608.0,27.170192133668625,121.1989957155804,1214.0,2601.0,675.0,26.245,3.16673296,1.361655775,1.0,-0.3821184,40.8917054
Alcover,5185.0,2569.0,2616.0,112.05365770316,46.27247433310496,1956.0,4203.0,905.0,30.15,4.51185014,4.00230533,1.0,1.1702772,41.2629186
Alcúdia,20651.0,10443.0,10208.0,343.3964386097941,60.13749031179093,8288.0,17413.0,2380.0,31.17,7.11302473090909,4.0991769063636365,1.0,3.1212505,39.8532473
Alcuéscar,2486.0,1286.0,1200.0,22.88896302115884,108.6112987164124,865.0,2026.0,620.0,18.273,0.0,0.0,1.0,-6.2284451,39.1801212
Aldaia,32313.0,16121.0,16192.0,2013.197668465924,16.050584851224677,12268.0,26948.0,4544.0,25.833,4.790671228947368,0.4022187821052632,1.0,-0.4607604,39.4647886
Aldea del Fresno,3085.0,1574.0,1511.0,59.684642816062805,51.688338146001946,996.0,2217.0,481.0,27.302,5.85659478,5.18481183,1.0,-4.19936,40.3215212
Aldea del Rey,1598.0,805.0,793.0,10.355367837834589,154.31610204724103,511.0,1165.0,495.0,22.865,0.0,0.0,1.0,-3.8391468,38.7380137
Aldeadávila de la Ribera,1181.0,584.0,597.0,25.58241355171045,46.16452617392068,254.0,735.0,504.0,22.726,0.0,1.98019802,1.0,-6.6197619,41.2185533
Aldeamayor de San Martín,5789.0,3001.0,2788.0,108.07050261515911,53.56688328372754,2187.0,5009.0,446.0,30.03,0.0,4.22724015,1.0,-4.6398863,41.5121927
Aldeanueva de Ebro,2794.0,1452.0,1342.0,71.4890164032509,39.08292686865035,1016.0,2097.0,635.0,22.36,0.0,2.817139,1.0,-1.8880858,42.2293469
Aldeanueva de la Vera,2035.0,997.0,1038.0,54.1206097659607,37.601202366347295,644.0,1542.0,543.0,17.775,2.61682243,2.43890518,1.0,-5.6999822,40.1289818
Aldeatejada,2307.0,1165.0,1142.0,73.4224450183131,31.420909497423924,781.0,1813.0,176.0,33.347,4.42863657,3.40322581,1.0,-5.6910803,40.9249715
Aledo,1083.0,538.0,545.0,21.861370693075983,49.53943717458722,300.0,770.0,252.0,22.893,0.0,0.0,1.0,-1.5731021,37.7954317
Alella,9954.0,4879.0,5075.0,1025.957620995483,9.702155134187384,3403.0,7798.0,1966.0,62.304,8.4228877825,8.78297242,1.0,2.2942758,41.4952867
Alfacar,5497.0,2808.0,2689.0,328.6071888503683,16.728179378032614,2126.0,4560.0,818.0,24.754,3.01245906,3.22326367,1.0,-3.5663721,37.2383551
Alfafar,21415.0,10498.0,10917.0,2122.757370346133,10.088293791441698,7564.0,16777.0,3986.0,24.116,5.04564981117647,0.7480761123529412,1.0,-0.3891355,39.4200749
Alfajarín,2374.0,1216.0,1158.0,17.16579747477363,138.29826452798147,800.0,1889.0,423.0,29.127,0.0,3.57454733,1.0,-0.7036902,41.6137838
Alfamén,1446.0,756.0,690.0,14.184574579937484,101.94172492456752,542.0,1168.0,273.0,21.984,0.0,2.84552846,1.0,-1.2431728,41.4383641
Alfara del Patriarca,3301.0,1576.0,1725.0,1666.4433855756477,1.980865373869104,1338.0,2788.0,526.0,28.049,6.87585361,0.0,1.0,-0.3856585,39.544129
Alfarnate,1057.0,541.0,516.0,31.09042591668061,33.99760436967508,316.0,803.0,302.0,18.397,0.0,0.0,1.0,-4.2604149,36.9942627
Alfaro,9562.0,4794.0,4768.0,49.30735000759249,193.92646326617867,3256.0,7436.0,2024.0,29.165,3.880471031666667,0.35921336333333337,1.0,-1.7492454,42.1785741
Alfarp,1564.0,799.0,765.0,76.00373877263546,20.57793504973081,550.0,1246.0,286.0,25.637,3.41503268,4.14772727,0.0,0.0,0.0
Alfarràs,2759.0,1427.0,1332.0,244.60750272654087,11.279294254045944,959.0,2170.0,652.0,26.182,3.571524435,0.0,1.0,0.5703358,41.8319289
Alfarrasí,1206.0,599.0,607.0,189.03147161300376,6.379890024180701,468.0,1008.0,254.0,24.876,2.71125499,0.0,1.0,-0.4967679,38.9043757
Alforja,1843.0,937.0,906.0,48.31578897594867,38.14488056724967,603.0,1435.0,353.0,27.621,4.48997287,4.41176471,1.0,0.9750606,41.2099763
Alfoz,1610.0,781.0,829.0,20.76984335108808,77.51623220189845,371.0,1072.0,685.0,20.878,0.0,0.746961355,0.0,0.0,0.0
Alfoz de Lloredo,2437.0,1263.0,1174.0,52.14637805871028,46.73383062686048,656.0,1757.0,651.0,25.735,2.05882353,0.0,0.0,0.0,0.0
Alfoz de Quintanadueñas,2163.0,1138.0,1025.0,52.10956121717921,41.50869724243453,821.0,1817.0,190.0,30.749,5.58510638,4.36046512,0.0,0.0,0.0
Algaida,5963.0,3026.0,2937.0,66.42237785046349,89.7739616221582,1891.0,4479.0,1050.0,33.318,3.3977206100000004,5.484115063333333,1.0,2.8943429,39.5589416
Algámitas,1253.0,652.0,601.0,61.34990200418309,20.42383050448174,479.0,990.0,258.0,16.613,0.0,0.0,1.0,-5.1488476,37.0163821
Algar,1442.0,739.0,703.0,54.19597824290332,26.607140358958688,463.0,1105.0,308.0,19.743,0.0,0.0,3.0,-5.8983778,39.06187103333333
Algarinejo,2440.0,1258.0,1182.0,26.49024868187516,92.10936557456584,758.0,1837.0,754.0,14.94,0.0,0.0,1.0,-4.1582073,37.325204
Algarrobo,6551.0,3298.0,3253.0,672.9198015970524,9.735186844632,2319.0,5033.0,1334.0,21.514,3.571102325,1.3776981075,1.0,-4.0399307,36.7732439
Algeciras,122982.0,60664.0,62318.0,1398.0968010128622,87.9638662436712,49479.0,102817.0,18597.0,29.985,3.890246527586207,1.2827324788505747,1.0,-5.4473991,36.1311725
Algemesí,27305.0,13532.0,13773.0,661.1969857866865,41.29631650923627,10432.0,22525.0,4760.0,25.681,3.5633061125,0.0,1.0,-0.4357471,39.190758
Algete,20749.0,10184.0,10565.0,546.7290246502797,37.95115873585144,8608.0,18101.0,2372.0,42.711,6.741078925555556,3.821743007777778,1.0,-3.4974479,40.5961297
Alginet,13942.0,7056.0,6886.0,579.1335422758475,24.07389484852058,4672.0,10795.0,2305.0,24.966,3.18965317375,2.03032110875,1.0,-0.4716912,39.2651129
Algodonales,5526.0,2784.0,2742.0,41.22432208854466,134.0470799769817,2017.0,4469.0,1121.0,19.088,0.0,0.987010065,1.0,-5.4047755,36.879693
Algorfa,3396.0,1731.0,1665.0,183.8564595780805,18.470931115465003,769.0,1894.0,944.0,20.37,5.0216195,5.43583791,1.0,-0.796152,38.0862119
Alguaire,3065.0,1632.0,1433.0,60.98900735819143,50.25495794675104,993.0,2314.0,623.0,27.419,3.949570875,0.714460785,1.0,0.585933,41.7361463
Alguazas,9842.0,5071.0,4771.0,412.8350219660092,23.840031674469568,4085.0,8239.0,1286.0,22.46,0.80740292625,0.8269841412500001,1.0,-1.2416437,38.0515024
Algueña,1334.0,672.0,662.0,72.20917281768155,18.474107207517395,431.0,987.0,354.0,21.599,0.0,2.43143127,1.0,-1.0030284,38.3380526
Alhama de Almería,3733.0,1872.0,1861.0,142.2454297753552,26.243373905899382,1418.0,2934.0,681.0,20.468,1.711647725,1.363636365,1.0,-2.5667688,36.9574546
Alhama de Granada,5667.0,2994.0,2673.0,13.505596111774922,419.6038407411871,2240.0,4885.0,1095.0,19.197,0.0,0.311290322,1.0,-3.9891096,37.0028286
Alhama de Murcia,22240.0,11262.0,10978.0,71.0483478749149,313.02627950131824,8676.0,18358.0,3299.0,24.96,3.72968487,0.8979010527777778,1.0,-1.4251045,37.8515145
Alhaurín de la Torre,41868.0,20802.0,21066.0,506.2630867382322,82.70008439633328,16772.0,35024.0,4887.0,31.681,4.01746019,6.57236163952381,1.0,-4.562753,36.6627542
Alhaurín el Grande,26095.0,13022.0,13073.0,356.9846461876494,73.09838190150938,9986.0,20341.0,3782.0,23.587,4.250187299166667,2.24774918,1.0,-4.6867447,36.6421248
Alhendín,9674.0,4900.0,4774.0,191.3470396878212,50.55735388320058,4159.0,8221.0,947.0,26.518,5.344181848,3.156060916,1.0,-3.6456986,37.1078115
Alicante/Alacant,337304.0,163052.0,174252.0,13281.984104612337,25.395603348363213,120889.0,269556.0,62021.0,28.18,5.635056940816327,0.5459344844489795,0.0,0.0,0.0
Aliseda,1751.0,895.0,856.0,21.74826996543561,80.51215120939979,556.0,1357.0,493.0,16.745,0.0,0.0,1.0,-6.6918971,39.4224611
Aljaraque,21706.0,10810.0,10896.0,641.7754416287015,33.8217990157342,9015.0,18976.0,2078.0,33.918,2.4073711172727275,3.3002648654545452,1.0,-7.0246859,37.2664912
Allande,1620.0,800.0,820.0,4.773540934801687,339.37071497372665,368.0,1047.0,650.0,20.9,3.59566097,0.0,0.0,0.0,0.0
Allariz,6314.0,3134.0,3180.0,73.45044102798828,85.96272413931526,1779.0,4533.0,1577.0,27.358,1.7847307225,3.3307341624999998,3.0,-8.0294156,42.47573413333333
Aller,10346.0,5109.0,5237.0,27.492436720116924,376.3216809526951,2658.0,7668.0,3140.0,28.417,2.740779068,0.0,0.0,0.0,0.0
Almacelles,6875.0,3682.0,3193.0,140.50618240111734,48.930231271768776,2460.0,5468.0,1321.0,27.299,4.0376392075,0.0,1.0,0.4404763,41.7294989
Almáchar,1843.0,940.0,903.0,127.9909481726624,14.39945579209051,631.0,1396.0,406.0,15.035,0.0,0.0,1.0,-4.2161584,36.808985
Almadén,5105.0,2445.0,2660.0,21.303086501528515,239.6366366739257,1793.0,3984.0,1477.0,23.545,0.780484,0.0,1.0,-4.832835,38.7742489
Almadén de la Plata,1331.0,689.0,642.0,5.203829387863951,255.77318178495165,447.0,1061.0,318.0,18.694,0.0,2.257340405,1.0,-6.0804954,37.8736407
Almagro,8896.0,4395.0,4501.0,35.59587495521529,249.91659879669885,3549.0,7350.0,1572.0,25.109,1.3505568171428572,2.084213802857143,1.0,-3.7118218,38.888238
Almansa,24388.0,12127.0,12261.0,45.80696053180287,532.408169345091,8844.0,20046.0,4491.0,24.933,3.113289817647059,0.4127180047058823,1.0,-1.0978627,38.8682065
Almaraz,1700.0,869.0,831.0,50.13956885437391,33.905357362316074,645.0,1474.0,291.0,28.657,2.28571429,0.0,1.0,-5.6778882,39.8142995
Almargen,1944.0,990.0,954.0,56.56222763994136,34.36922626836653,715.0,1559.0,425.0,21.19,0.0,0.0,1.0,-5.0218486,37.0024585
Almàssera,7433.0,3619.0,3814.0,2760.031109408795,2.693085586847666,2538.0,6066.0,1229.0,29.262,5.12462219,1.0869565225,1.0,-0.3562374,39.5118213
Almazán,5411.0,2759.0,2652.0,32.492817280298034,166.5291117517517,1912.0,4212.0,1314.0,26.686,4.197665626666667,1.04331843,1.0,-2.5335988,41.4870645
Almedinilla,2352.0,1170.0,1182.0,42.36532200468521,55.51710428968038,886.0,1863.0,546.0,17.643,0.0,0.0,1.0,-4.0961434,37.4405255
Almenar,3365.0,1778.0,1587.0,50.5846617738835,66.52214094149238,1168.0,2668.0,785.0,27.548,2.40799838,0.0,1.0,0.5688317,41.7961026
Almenara,6254.0,3143.0,3111.0,226.0665744008545,27.664417070834155,2058.0,4780.0,1120.0,26.291,5.044695753333333,2.3405311233333332,1.0,-0.2251286,39.7521228
Almendral,1223.0,609.0,614.0,18.11800972323131,67.50189555488771,441.0,962.0,278.0,18.54,0.0,0.0,1.0,-6.8224367,38.613547
Almendralejo,33741.0,16700.0,17041.0,205.4249488526305,164.24976707286612,13816.0,28163.0,5305.0,23.473,3.275633729,0.3756077585,1.0,-6.4067802,38.6846791
Almensilla,6287.0,3147.0,3140.0,446.47995784743017,14.08125916852101,2586.0,5386.0,622.0,25.744,0.0,3.1500614933333337,1.0,-6.1130523,37.3100014
Almería,200753.0,98141.0,102612.0,678.8538844726601,295.72343120043683,79407.0,165603.0,31248.0,25.8475,4.996637463458647,0.9100808494736843,1.0,-2.4628135,36.8414197
Almodóvar del Campo,5947.0,2989.0,2958.0,4.923431339882413,1207.8974173613708,1807.0,4373.0,1766.0,27.137,0.0,0.0,1.0,-4.1760555,38.7083953
Almodóvar del Río,8036.0,4004.0,4032.0,46.57843467250998,172.52619278643877,3177.0,6580.0,1384.0,19.158,0.0,0.5685188928571429,1.0,-5.0194742,37.8112483
Almogía,3859.0,2002.0,1857.0,23.691822723510487,162.88320426146598,1344.0,2995.0,775.0,19.537,0.0,0.0,1.0,-4.5406993,36.8261541
Almoguera,1307.0,662.0,645.0,10.973939653970938,119.10034510961248,481.0,1048.0,258.0,22.597,0.0,0.0,1.0,-2.9844461,40.2968314
Almoharín,1796.0,879.0,917.0,19.219385316161336,93.4473174066481,593.0,1380.0,458.0,17.907,0.0,1.198394495,1.0,-6.0427828,39.1754757
Almoines,2528.0,1263.0,1265.0,1193.596895420617,2.1179679753683893,911.0,2012.0,367.0,23.929,4.14634146,3.64628742,1.0,-0.1817019,38.9435394
Almonaster la Real,1786.0,954.0,832.0,5.558882044186785,321.2876232672924,561.0,1401.0,436.0,23.853,0.0,2.164481875,1.0,-6.7866023,37.8721788
Almonte,24577.0,11922.0,12655.0,28.62058861919667,858.7174892523169,9927.0,20997.0,3016.0,17.748,1.0922675415384615,1.7236289084615386,1.0,-6.5175751,37.2611686
Almoradí,21404.0,10773.0,10631.0,501.336958452754,42.69384021887769,8631.0,17474.0,3068.0,22.657,3.418421594545454,1.2654076181818181,1.0,-0.7919322,38.1096615
Almorox,2318.0,1218.0,1100.0,35.92656352261983,64.5205044045072,719.0,1603.0,556.0,22.768,1.85054814,3.185460375,1.0,-4.3889347,40.2330255
Almoster,1322.0,658.0,664.0,219.1074832510911,6.033568458659281,511.0,1156.0,186.0,43.99,5.93220339,0.0,1.0,1.1111352,41.1960574
Almudévar,2412.0,1213.0,1199.0,11.971096719434296,201.48529884352828,751.0,1751.0,643.0,27.378,4.39316229,3.408808455,2.0,-0.5810762,42.04190785
Almuñécar,25890.0,12769.0,13121.0,310.5648073774578,83.36424277633466,9277.0,20878.0,5499.0,22.865,6.193106706,1.7593883666666665,1.0,-3.68968,36.7328699
Almussafes,8984.0,4493.0,4491.0,834.8070597641199,10.761768117459964,3459.0,7508.0,1424.0,30.098,3.93096462,1.536562695,1.0,-0.4138577,39.2924334
Álora,13336.0,6764.0,6572.0,78.62298019610645,169.61961969307825,4794.0,10465.0,2486.0,20.456,2.280650987777778,0.3587962966666667,1.0,-4.7063011,36.8238814
Alosno,3929.0,1934.0,1995.0,20.563837204248628,191.06356274733795,1294.0,2997.0,945.0,20.158,0.0,0.0,1.0,-7.115795,37.5496719
Alovera,13051.0,6657.0,6394.0,945.246028920504,13.806987388145483,5598.0,11645.0,925.0,31.067,6.941850198,5.1585839479999995,1.0,-3.2487763,40.5953571
Alozaina,2090.0,1057.0,1033.0,61.74238330982917,33.8503291897914,663.0,1539.0,476.0,19.309,0.0,0.0,1.0,-4.8579969,36.727762
Alp,1645.0,849.0,796.0,37.16634451839504,44.26047332112059,576.0,1342.0,217.0,36.272,7.04140469,5.9597705,1.0,1.8871916,42.3736381
Alpedrete,14959.0,7351.0,7608.0,1180.7931976510924,12.66860279154502,5709.0,12500.0,1864.0,39.829,6.1906349574999995,6.9835737175,1.0,-4.0251362,40.6599262
Alpera,2285.0,1189.0,1096.0,12.809896715729783,178.37770676122292,810.0,1727.0,548.0,19.752,0.0,0.907444005,1.0,-1.2308857,38.9596638
Alpicat,6274.0,3159.0,3115.0,408.572669117532,15.35589743080732,2506.0,5395.0,835.0,40.674,3.58971915,4.45076788,1.0,0.5560656,41.6651189
Altafulla,5512.0,2679.0,2833.0,799.737656129602,6.89226017776353,1856.0,4238.0,882.0,41.321,8.342780766666666,6.961883676666666,1.0,1.3768704,41.1423467
Altea,22657.0,11117.0,11540.0,651.5143860401378,34.77590132384916,7502.0,17587.0,4408.0,27.618,5.691574715714286,2.9820993735714287,1.0,-0.0472059,38.6028245
Altorricón,1441.0,787.0,654.0,44.45996065322918,32.41118477902518,447.0,1038.0,371.0,26.964,3.94934677,2.97286332,1.0,0.4131591,41.8011765
Altura,3658.0,1891.0,1767.0,28.25387793074254,129.46895321649973,1259.0,2749.0,760.0,23.294,2.0991672833333332,3.0286797300000003,1.0,-0.5128608,39.8512304
Alzira,44865.0,21930.0,22935.0,406.05574552762073,110.48975539480008,16697.0,36430.0,7963.0,26.364,3.7150346018750002,0.577027338125,1.0,-0.4346556,39.151212
Amer,2383.0,1170.0,1213.0,59.68302783360669,39.92759895901538,739.0,1710.0,546.0,32.556,4.57081056,4.296875,1.0,2.6030327,42.0092186
Ames,31993.0,15379.0,16614.0,399.4179068378142,80.0990627918716,11874.0,27607.0,3671.0,30.56,2.955363503,0.8032134190000001,0.0,0.0,0.0
Amoeiro,2333.0,1179.0,1154.0,58.79805118079749,39.678185809701134,476.0,1483.0,782.0,24.26,0.0,2.88000043,1.0,-7.9486807,42.4142102
Amposta,21317.0,10776.0,10541.0,153.8393550475941,138.5666235626446,7631.0,16768.0,3838.0,25.903,4.329571221666667,1.2987214083333334,1.0,0.5827636,40.7079905
Ampuero,4368.0,2189.0,2179.0,134.53674954063874,32.46696545675487,1362.0,3329.0,890.0,26.494,3.9651922166666664,0.0,1.0,-3.4151482,43.3440563
Anchuelo,1359.0,701.0,658.0,62.89352384727884,21.607948114021895,509.0,1107.0,165.0,28.886,7.06176674,4.94938915,1.0,-3.2689196,40.4653862
Andorra,7327.0,3682.0,3645.0,51.83272270095396,141.3585784847291,2663.0,6187.0,1446.0,30.668,3.4411708749999996,0.3679962016666667,1.0,-0.4442782,40.9753365
Andratx,11571.0,5830.0,5741.0,141.73380403263968,81.63895747365484,4162.0,9311.0,1693.0,31.815,8.902195635999998,6.722248738,1.0,2.4202061,39.5745956
Andújar,36212.0,17697.0,18515.0,37.57991757807408,963.5997717336083,14063.0,30293.0,6820.0,21.656,2.6128844484615383,0.0,1.0,-4.0505603,38.0392362
Anglès,5709.0,2850.0,2859.0,351.6012460441657,16.237143821961528,2136.0,4475.0,1044.0,30.009,4.847720313333333,4.86650356,1.0,2.6359493,41.9559224
Anglesola,1356.0,686.0,670.0,57.27300360382632,23.676076243177995,449.0,996.0,332.0,27.811,4.06976744,0.0,1.0,1.0834165,41.6581289
Anna,2627.0,1327.0,1300.0,122.4762276700999,21.449060360317816,796.0,1954.0,684.0,21.671,2.5752593150000003,1.205714625,1.0,-0.6461361,39.0204311
Añora,1526.0,754.0,772.0,13.595208909790662,112.24542484970884,505.0,1142.0,382.0,26.845,0.0,0.0,2.0,-4.8974797500000005,38.4114677
Añover de Tajo,5202.0,2626.0,2576.0,129.2286078466729,40.25424468065203,1877.0,4115.0,917.0,22.957,3.39895969,2.133547463333333,1.0,-3.7660548,39.9877375
Antas,3355.0,1743.0,1612.0,33.639254121006,99.73467271097944,1227.0,2586.0,583.0,21.001,4.470915465,2.774162265,2.0,-5.171334900000001,39.827113350000005
Antas de Ulla,1935.0,954.0,981.0,18.67718004403615,103.60236371003282,435.0,1202.0,806.0,20.319,0.0,0.0,1.0,-7.8896857,42.7822537
Antella,1127.0,542.0,585.0,64.11070940809968,17.5789662975967,348.0,892.0,317.0,22.115,0.0,2.26651764,1.0,-0.5926271,39.0792449
Antequera,41348.0,20247.0,21101.0,55.27549689932219,748.034885607822,16314.0,34274.0,6880.0,25.736,3.2061611144827586,0.6876230168965518,1.0,-4.5596649,37.0183652
Aracena,8215.0,4051.0,4164.0,44.538300728493255,184.4479889360592,3146.0,6656.0,1384.0,23.996,1.0666315071428571,3.532132137142857,1.0,-6.5624496,37.8949414
Arahal,19497.0,9651.0,9846.0,96.9381595733295,201.12822531204927,8211.0,16511.0,3054.0,21.039,0.0,0.0,1.0,-5.5449325,37.2623933
Aranda de Duero,33084.0,16021.0,17063.0,259.94269989910777,127.27420317185664,11447.0,25585.0,6938.0,29.157,5.439500577727273,0.2548853018181818,1.0,-3.6851172,41.6715067
Aranga,1833.0,941.0,892.0,15.327339162242383,119.59022897564908,386.0,1124.0,770.0,22.858,0.0,2.19750419,0.0,0.0,0.0
Aranjuez,59833.0,29126.0,30707.0,316.3855334605716,189.11420931784315,23311.0,49461.0,9576.0,31.151,7.02136767625,0.796884271875,1.0,-3.6040097,40.0322289
Arbeca,2141.0,1114.0,1027.0,36.77193508981182,58.22375120511931,688.0,1572.0,590.0,26.422,1.833333335,0.0,1.0,0.9242319,41.5413249
Arbo,2599.0,1350.0,1249.0,60.634491868914,42.86339210393303,593.0,1700.0,937.0,20.257,0.0,0.83277666,0.0,0.0,0.0
Arboleas,4685.0,2356.0,2329.0,70.8307063211155,66.14362955467725,791.0,2688.0,1898.0,19.025,0.0,3.36488537,1.0,-2.0742569,37.3511387
Arbúcies,6507.0,3355.0,3152.0,75.43078814817659,86.26451028481394,2503.0,5359.0,1156.0,28.574,4.786422646666666,3.3539553533333333,1.0,2.5141453,41.8160629
Arcas,1867.0,932.0,935.0,22.901276469346183,81.52384005751892,708.0,1513.0,152.0,29.16,4.32445068,3.55046948,3.0,-5.984807333333333,41.6371124
Archena,19500.0,10221.0,9279.0,1190.7740837373246,16.37590225242217,7958.0,16194.0,2859.0,22.975,3.0635746545454547,0.5431828318181818,1.0,-1.3025236,38.1178119
Archidona,8114.0,4128.0,3986.0,43.51540668067712,186.46269491497128,3065.0,6696.0,1592.0,21.393,1.43057737,0.0,2.0,-5.3389864,37.4045404
Arcicóllar,964.0,475.0,489.0,31.55850159316872,30.54644394804446,259.0,636.0,193.0,23.612,0.0,3.53361957,1.0,-4.1159804,40.0541018
Arcos,1816.0,948.0,868.0,57.75123794485494,31.445213377660373,732.0,1578.0,106.0,32.413,0.0,4.07723031,13.0,-8.104262523076923,42.54659560769231
Arcos de Jalón,1477.0,762.0,715.0,3.3451144622379783,441.5394500467539,423.0,1026.0,463.0,22.575,1.760118095,1.633442935,1.0,-2.2753018,41.2157666
Arcos de la Frontera,30902.0,15427.0,15475.0,58.6589885895249,526.8075829987692,12307.0,26093.0,4648.0,20.853,1.1506275230434782,0.6875594234782608,1.0,-5.8122092,36.7526913
Ardales,2518.0,1281.0,1237.0,23.65149701387836,106.4626056660377,937.0,2017.0,476.0,20.27,0.0,1.525036135,1.0,-4.8468061,36.8781793
Arenas,1181.0,615.0,566.0,44.89595037120327,26.305267852343,369.0,873.0,304.0,17.345,0.0,0.0,4.0,-5.231429224999999,41.7233271
Arenas de Iguña,1703.0,858.0,845.0,19.767196416006666,86.15283443134001,466.0,1191.0,485.0,23.033,0.0,1.923076925,1.0,-4.0496673,43.1870286
Arenas de San Juan,1033.0,529.0,504.0,16.372747983649315,63.09264645321653,395.0,821.0,222.0,18.584,0.0,0.0,1.0,-3.5027025,39.2193056
Arenas de San Pedro,6434.0,3118.0,3316.0,33.241667992671495,193.55226101826324,1911.0,4847.0,1607.0,22.742,3.2356411520000004,1.23720128,1.0,-5.0868775,40.2107266
Arenys de Mar,15942.0,7749.0,8193.0,2377.953879010876,6.704082926381722,5249.0,12179.0,3354.0,34.977,7.82312882888889,4.633183186666667,1.0,2.5491562,41.5797031
Arenys de Munt,9191.0,4649.0,4542.0,427.9135085957231,21.47863952732401,3272.0,7314.0,1524.0,35.589,7.5642281125,5.9070404275,1.0,2.5400513,41.6095429
Ares,5997.0,2951.0,3046.0,329.4259696023943,18.2043935614371,1594.0,4212.0,1459.0,29.846,3.4361514325,1.52615798,3.0,-4.920378800000001,43.0326712
Arévalo,7881.0,3838.0,4043.0,172.4016270026658,45.71302566580847,2937.0,6593.0,1476.0,25.677,3.7152490966666663,1.4737099933333333,1.0,-4.7198921,41.0632758
Argamasilla de Alba,6844.0,3435.0,3409.0,17.24561319080724,396.8545463867987,2661.0,5681.0,1220.0,21.79,2.163519606,0.8814216739999999,1.0,-3.0903226,39.1286071
Argamasilla de Calatrava,5853.0,2921.0,2932.0,35.003691333023845,167.21093624997349,2116.0,4708.0,1213.0,28.591,1.70372434,1.5116462675,1.0,-4.0792825,38.7268428
Arganda del Rey,56386.0,28161.0,28225.0,701.990353000214,80.32304113441685,22554.0,48134.0,6420.0,29.48,6.982030869230769,2.7762105561538464,1.0,-3.4381627,40.3007913
Argentona,12629.0,6280.0,6349.0,498.3088472974312,25.34372020182493,4646.0,10166.0,2129.0,38.682,7.638208448888889,6.111636163333333,1.0,2.4002787,41.5554326
Argés,6621.0,3307.0,3314.0,278.6254999605071,23.763079836333976,2746.0,5727.0,614.0,30.217,1.3986697966666668,4.2099579,2.0,-3.8659829,41.35069085
Argoños,1834.0,946.0,888.0,329.9041306467266,5.559190775831522,592.0,1439.0,284.0,30.327,4.92890584,5.89041096,1.0,-3.49159,43.45717
Ariany,897.0,458.0,439.0,38.76904446036496,23.137015948820626,263.0,620.0,240.0,30.415,0.0,3.80978227,1.0,3.1115282,39.6507976
Ariza,1068.0,549.0,519.0,10.36052822345352,103.08354718655444,359.0,801.0,338.0,20.966,0.0,0.0,1.0,-2.0555644,41.3103593
Arjona,5450.0,2691.0,2759.0,34.39619496168642,158.44775871490148,2182.0,4491.0,1104.0,19.436,0.0,0.0,1.0,-4.0544689,37.9355989
Arjonilla,3545.0,1794.0,1751.0,83.29924532911288,42.55740836539165,1372.0,2916.0,694.0,18.05,0.0,0.0,1.0,-4.1068464,37.9740992
Armilla,24388.0,12006.0,12382.0,5658.102427946105,4.310278986740235,10085.0,21181.0,2787.0,28.575,5.929066677142857,4.129727987857143,1.0,-3.6277259,37.1431197
Arnedo,14954.0,7476.0,7478.0,175.1064735390563,85.39946980694927,5475.0,11982.0,2833.0,26.3,4.318417067,0.6310163049999999,2.0,-2.99786185,42.5962402
Arnuero,2144.0,1067.0,1077.0,87.01114231708773,24.64052238490092,631.0,1624.0,484.0,30.33,2.46026678,1.968503935,1.0,-3.5675443,43.4713844
Aroche,3046.0,1519.0,1527.0,6.1148734047343885,498.12969106468506,1132.0,2476.0,633.0,17.499,0.0,0.0,1.0,-6.9539589,37.9436167
Arquillos,1708.0,863.0,845.0,25.886807219070764,65.97955420094138,686.0,1437.0,330.0,16.057,0.0,0.0,1.0,-3.4270554,38.1809503
Arriate,4112.0,2036.0,2076.0,496.9717743099519,8.274111755561037,1580.0,3379.0,768.0,21.843,0.0,2.059408646666667,1.0,-5.1407457,36.7991421
Arroyo de la Encomienda,20716.0,10377.0,10339.0,1739.5360563843467,11.90892245318475,8532.0,18531.0,1101.0,33.732,5.9803477172727275,2.9611709700000004,1.0,-4.7813957,41.6221279
Arroyo de la Luz,5663.0,2802.0,2861.0,44.223291278009455,128.05469327010476,1875.0,4488.0,1363.0,20.169,0.0,0.0,1.0,-6.5845773,39.4840338
Arroyo de San Serván,4081.0,2066.0,2015.0,81.38312865621577,50.14552853134022,1761.0,3422.0,704.0,19.401,0.0,0.0,1.0,-6.4545275,38.8548255
Arroyo del Ojanco,2243.0,1134.0,1109.0,39.13817489257711,57.30977507654308,837.0,1854.0,469.0,16.409,0.0,0.0,1.0,-2.8934526,38.3217918
Arroyomolinos,844.0,434.0,410.0,7.306853188975173,115.5080002528935,14115.0,29010.0,1778.0,39.801,7.232328956,4.871225754666667,2.0,-5.0394305,39.7292608
Arroyomolinos,33687.0,16775.0,16912.0,1619.2429465575522,20.804166583907165,14115.0,29010.0,1778.0,39.801,7.232328956,4.871225754666667,2.0,-5.0394305,39.7292608
Artà,7984.0,3992.0,3992.0,57.08110681683886,139.87114905846096,2941.0,6255.0,1416.0,30.812,4.353731342000001,4.106740952,1.0,3.3506343,39.6950088
Artana,1970.0,999.0,971.0,54.22779384787191,36.328234291192906,650.0,1526.0,432.0,23.496,1.68539326,0.0,1.0,-0.2576603,39.8911264
Arteixo,32894.0,16272.0,16622.0,350.52204307790555,93.84288563184349,11141.0,26955.0,4962.0,26.886,3.772976263333333,2.246640046111111,1.0,-8.508275,43.3045943
Artés,5782.0,2908.0,2874.0,323.81969033843274,17.855615864362896,2073.0,4642.0,1006.0,31.002,5.27687185,4.2069638975,2.0,-3.5254388,42.18675315
Artesa de Lleida,1525.0,808.0,717.0,63.39253622432432,24.056459811034397,523.0,1234.0,304.0,28.12,0.0,2.90329928,1.0,0.7034622,41.552805
Artesa de Segre,3441.0,1772.0,1669.0,19.51145179607591,176.35796843636436,1235.0,2700.0,747.0,26.561,3.627170355,2.6849162399999997,1.0,1.0471121,41.8962914
Arzúa,5964.0,2981.0,2983.0,38.35868058754857,155.47980036456067,1610.0,4238.0,1815.0,24.774,1.36374715,0.885823712,1.0,-8.1605667,42.9279921
As Neves,3770.0,1850.0,1920.0,57.11692503739248,66.00495382991838,1105.0,2747.0,1145.0,21.906,0.84010578,0.0,4.0,-7.995855175,42.7729449
As Pontes de García Rodríguez,10032.0,4900.0,5132.0,40.15461007765703,249.83432738105557,2870.0,7758.0,2479.0,31.627,2.0931452925,0.8095929625,1.0,-7.8531464,43.4501505
As Somozas,1076.0,547.0,529.0,15.151151056164151,71.017706576309,262.0,785.0,318.0,23.304,0.0,2.04642296,0.0,0.0,0.0
Ascó,1611.0,820.0,791.0,21.91600920290777,73.50790853775769,583.0,1310.0,364.0,35.537,3.46031746,0.0,1.0,0.5679989,41.1805311
Aspe,21088.0,10612.0,10476.0,299.06264058732546,70.51365546223204,8037.0,17096.0,3441.0,23.223,2.004251797368421,0.22025051421052633,1.0,-0.7692125,38.3459902
Astorga,10553.0,4940.0,5613.0,225.5951746605573,46.77848281054156,3231.0,8044.0,2985.0,25.792,3.3963316642857144,0.96841782,1.0,-6.052924,42.455401
Astudillo,1021.0,516.0,505.0,8.303809316599926,122.9556172441178,235.0,654.0,350.0,24.704,0.0,2.86458333,1.0,-4.2938662,42.1927215
Atarfe,19198.0,9627.0,9571.0,406.2820703432501,47.25288512924148,8336.0,16451.0,2103.0,23.556,3.8071063808333334,2.106571695,1.0,-3.6865662,37.2226964
Ateca,1729.0,893.0,836.0,20.41043586558272,84.7115667390299,499.0,1308.0,485.0,24.417,3.71495327,2.6735153,1.0,-1.7928985,41.3308277
Atzeneta del Maestrat,1292.0,655.0,637.0,18.157194784411377,71.15636613147036,350.0,867.0,404.0,24.733,0.0,1.48809524,1.0,-0.1709719,40.2166007
Autol,4702.0,2363.0,2339.0,55.13272454262278,85.28510134421003,1783.0,3687.0,782.0,23.05,3.611169823333333,1.18678161,1.0,-2.0057815,42.2130714
Avià,2199.0,1100.0,1099.0,80.9791535174181,27.15513690232646,748.0,1796.0,454.0,32.089,4.28533108,1.92641482,2.0,1.82228475,42.07738485
Ávila,57949.0,27608.0,30341.0,251.1828621855667,230.7044337968764,20946.0,46405.0,11252.0,27.118499999999997,4.842496725128205,1.0619150912820514,1.0,-4.7002172,40.656478
Avilés,76874.0,36292.0,40582.0,2876.654908097359,26.72340007958933,22374.0,59406.0,19309.0,29.817,5.233194347352941,0.2995847267647059,1.0,-5.9222466,43.5554436
Avinyó,2286.0,1148.0,1138.0,35.94268596718593,63.60125679218898,801.0,1754.0,496.0,30.176,4.86111111,2.96709604,2.0,1.9710982,41.86312975
Avinyonet de Puigventós,1657.0,825.0,832.0,133.07567007188968,12.451562326192768,649.0,1431.0,173.0,33.975,0.0,5.10187802,1.0,2.9145442,42.2499757
Avinyonet del Penedès,1701.0,906.0,795.0,58.191055226961495,29.23129668925269,543.0,1343.0,326.0,32.169,6.19230769,3.50136698,0.0,0.0,0.0
Avión,1738.0,790.0,948.0,14.348809714690717,121.12502950126844,296.0,872.0,934.0,18.447,0.0,0.0,0.0,0.0,0.0
Ayamonte,21510.0,10786.0,10724.0,151.939205155784,141.56978100514408,7893.0,17404.0,3479.0,22.824,3.6754041678571427,1.4812481107142859,1.0,-7.4060169,37.215797
Ayerbe,1028.0,508.0,520.0,16.089283176241185,63.89346179934436,301.0,722.0,319.0,25.234,3.67351047,2.87395027,1.0,-0.6892389,42.2764391
Ayllón,1153.0,592.0,561.0,8.941268106029835,128.95262577155438,430.0,945.0,258.0,23.92,3.19318339,2.84810127,1.0,-3.3763517,41.4195795
Ayora,5215.0,2582.0,2633.0,11.675021445426772,446.6801216920051,1746.0,4061.0,1215.0,22.655,2.125071795,0.0,1.0,-1.057216,39.0596612
Aznalcázar,4614.0,2344.0,2270.0,10.261977559701425,449.6209403262666,1874.0,3789.0,706.0,21.325,0.0,3.5756435100000004,1.0,-6.2508499,37.3035085
Aznalcóllar,6060.0,3072.0,2988.0,30.420403577924837,199.2084024946191,2569.0,5151.0,941.0,21.363,0.0,0.0,1.0,-6.2716793,37.5193459
Azuaga,7702.0,3817.0,3885.0,15.46977087858678,497.8742129051885,2679.0,6054.0,1837.0,21.391,1.1721494742857141,0.87492501,1.0,-5.6768563,38.2592148
Azuqueca de Henares,35236.0,17777.0,17459.0,1783.7811562955358,19.75354424820604,14810.0,31066.0,3619.0,28.946,6.100515678888889,2.314440907222222,1.0,-3.2627134,40.5683808
Badajoz,150610.0,72942.0,77668.0,104.55268358392335,1440.5177833537568,59259.0,126356.0,24174.0,26.225499999999997,4.282166172314815,0.7702028377777778,1.0,-6.9701115,38.878187
Badalona,223006.0,110001.0,113005.0,10637.405799712573,20.96432195959148,80641.0,177176.0,40565.0,31.215,9.219554442896552,1.1116502830344828,1.0,2.248254,41.4493539
Badia del Vallès,13228.0,6473.0,6755.0,14191.293284797222,0.9321208246869808,4800.0,10706.0,2711.0,25.604,0.0,0.0,1.0,2.1153773,41.5075702
Badolatosa,3099.0,1600.0,1499.0,64.84829695312364,47.78845622175937,1292.0,2606.0,488.0,16.125,0.0,0.0,1.0,-4.672493,37.3062674
Baena,18885.0,9455.0,9430.0,52.11087894013783,362.4003352868807,8153.0,16170.0,3168.0,19.139,1.287387963076923,0.0,1.0,-4.324371,37.6173035
Baeza,15762.0,7799.0,7963.0,81.7640612747876,192.77418164232384,6362.0,13218.0,2684.0,23.708,2.3173894184615382,0.0,1.0,-3.4708163,37.9945171
Bagà,2145.0,1065.0,1080.0,49.75845360921124,43.10825285782032,637.0,1588.0,564.0,30.066,4.59134615,2.62482759,1.0,1.8625903,42.2527659
Bailén,17498.0,8688.0,8810.0,149.38172022595333,117.13615276040936,7256.0,15045.0,2775.0,20.842,2.0967767933333334,0.0,1.0,-3.7765601,38.096787
Baiona,12286.0,6043.0,6243.0,356.45414065601244,34.467266889897935,3996.0,9715.0,2419.0,31.383,4.7756938175,3.80946220875,2.0,-8.30606055,42.7000177
Balaguer,17409.0,8918.0,8491.0,304.92844940235267,57.09208187730903,6704.0,13876.0,2965.0,27.99,4.065418378888889,1.4735402177777779,1.0,0.8050711,41.7896408
Balanegra,2959.0,1568.0,1391.0,93.660050177011,31.5929790172832,1262.0,2614.0,319.0,20.176,1.960784315,3.207394315,1.0,-2.9105037,36.7491562
Balazote,2363.0,1208.0,1155.0,36.26891752635329,65.15220638396569,972.0,1925.0,435.0,22.589,1.47541605,1.439790575,1.0,-2.1525166,38.8850397
Baleira,1190.0,641.0,549.0,7.048885638105864,168.82101102150523,257.0,763.0,505.0,19.908,0.0,2.37345375,0.0,0.0,0.0
Balenyà,3900.0,1956.0,1944.0,226.11578518506263,17.247800708862833,1414.0,3179.0,604.0,29.204,5.885416665,3.81940309,1.0,2.222411,41.8216074
Balsareny,3278.0,1632.0,1646.0,89.26716936824491,36.72122711181302,993.0,2479.0,726.0,29.864,3.537605166666667,2.41145041,1.0,1.8755997,41.8631839
Baltanás,1219.0,628.0,591.0,7.673815857877856,158.8518701225529,319.0,837.0,379.0,21.929,2.95717593,0.0,1.0,-4.2471899,41.9370606
Bande,1490.0,755.0,735.0,15.055675988857365,98.96599801315745,258.0,821.0,770.0,20.342,2.77777778,0.0,1.0,-7.9749081,42.0316148
Baños de la Encina,2596.0,1344.0,1252.0,6.6171130749028215,392.3161007851033,951.0,2094.0,517.0,18.98,0.0,0.0,1.0,-3.7744639,38.1710134
Baños de Molgas,1483.0,743.0,740.0,21.924365444468457,67.64163842079009,232.0,835.0,712.0,20.578,0.0,0.0,1.0,-7.6727944,42.2418656
Baños de Río Tobía,1583.0,800.0,783.0,89.9877676279851,17.59127981198754,520.0,1212.0,378.0,27.318,3.38235294,0.0,1.0,-2.7612306,42.3348282
Banyeres de Mariola,7113.0,3572.0,3541.0,141.4771459369384,50.27667156340945,2608.0,5657.0,1456.0,29.429,2.4134865183333334,0.0,1.0,-0.6577745,38.7156535
Banyeres del Penedès,3280.0,1659.0,1621.0,267.751600687681,12.250160191669435,1194.0,2626.0,502.0,31.319,2.499286465,4.656471635,1.0,1.5813324,41.2791532
Banyoles,20168.0,10040.0,10128.0,1829.571228455542,11.02334781304202,8009.0,16323.0,3292.0,33.766,5.805266677500001,3.8802160391666667,1.0,2.7653607,42.1180477
Baralla,2445.0,1279.0,1166.0,17.320272234434654,141.1640629492569,538.0,1571.0,995.0,20.694,1.360930735,0.0,3.0,-8.2050222,42.721697166666665
Barbadás,11022.0,5395.0,5627.0,367.1446700861827,30.0208634307907,3971.0,9025.0,1926.0,25.736,2.97220156,1.156546825,1.0,-7.8872314,42.301551
Barbastro,17146.0,8342.0,8804.0,159.35354766412928,107.59722799607049,6163.0,13507.0,3437.0,29.24,4.90936945090909,0.0,1.0,0.127238,42.0366952
Barbate,22761.0,11407.0,11354.0,160.09995976073012,142.16743111001642,8835.0,18928.0,3623.0,20.937,1.830659274375,0.4826574225,1.0,-5.9192837,36.1923983
Barberà del Vallès,33016.0,16237.0,16779.0,4026.035122593309,8.20062393761067,12303.0,27447.0,5392.0,32.37,7.115143853478261,0.6898114882608696,1.0,2.1265942,41.5172534
Barcarrota,3498.0,1779.0,1719.0,25.699956009767263,136.1091823920082,1269.0,2758.0,822.0,18.634,0.0,0.0,1.0,-6.8492276,38.5163049
Barcelona,1636732.0,778744.0,857988.0,16243.155434131124,100.76441160938457,579906.0,1271353.0,348990.0,40.293499999999995,12.452728309625467,0.5738076721722847,1.0,2.177073,41.3825802
Bárcena de Cicero,4399.0,2252.0,2147.0,121.36870656082586,36.24492774663765,1373.0,3465.0,721.0,27.431,5.197906276666667,1.39113197,1.0,-3.5089051,43.4199578
Barcience,940.0,515.0,425.0,49.52640547769397,18.97977434327156,394.0,790.0,66.0,22.825,0.0,2.89677177,1.0,-4.2362793,39.9834419
Bareyo,2129.0,1075.0,1054.0,65.92792502627334,32.29284099494348,646.0,1577.0,395.0,25.62,5.35714286,3.71577099,1.0,-3.59844,43.46812
Bargas,10611.0,5313.0,5298.0,118.28154976562578,89.70968017434365,4047.0,8660.0,1432.0,31.447,5.874969972,4.081745870000001,2.0,-4.02001885,39.93933445
Barrax,1808.0,926.0,882.0,9.527298840208582,189.7704722318144,720.0,1515.0,349.0,21.136,0.0,2.28437358,1.0,-2.2004126,39.0460357
Barreiros,3001.0,1458.0,1543.0,41.335997749423775,72.6001587815026,677.0,1960.0,981.0,25.436,2.957858046666667,1.6253315266666668,23.0,-7.846306004347826,42.8381141
Barro,3622.0,1778.0,1844.0,96.45576725742956,37.550890972991695,1221.0,2871.0,845.0,25.066,0.9498192625,0.7315594975,18.0,-8.430000883333333,42.54719119444445
Barruelo de Santullán,1187.0,585.0,602.0,22.27138032678292,53.29710069979578,272.0,783.0,400.0,24.059,0.0,3.10457516,1.0,-4.2881024,42.9087746
Barx,1354.0,703.0,651.0,84.09457284302242,16.100920121533687,305.0,837.0,392.0,25.986,0.0,2.83589418,1.0,-0.302021,39.0148124
Barxeta,1604.0,821.0,783.0,56.24561690923981,28.517777706808317,535.0,1252.0,352.0,22.584,0.0,0.0,1.0,-0.4165167,39.0225353
Bàscara,1015.0,523.0,492.0,59.51777685258707,17.0537283762117,351.0,773.0,227.0,30.457,6.14035088,3.7163512,1.0,2.9092786,42.1591723
Batea,1879.0,937.0,942.0,14.719798476061095,127.6512041286319,600.0,1339.0,559.0,20.26,0.0,0.0,1.0,0.3140574,41.094279
Batres,1820.0,924.0,896.0,85.21613759204176,21.35745706655881,567.0,1413.0,225.0,35.626,0.0,5.35714286,1.0,-3.9215947,40.2091393
Baza,20281.0,10028.0,10253.0,37.18677523267728,545.3820578176511,7954.0,16838.0,3681.0,23.518,2.147008616,0.8955234606666667,1.0,-2.7709805,37.4888637
Beas,4464.0,2231.0,2233.0,30.858218101545837,144.66162580451712,1474.0,3325.0,911.0,21.667,1.16433799,1.9522943766666667,1.0,-6.7916123,37.4254522
Beas de Granada,980.0,513.0,467.0,42.24213142451901,23.19958692783123,326.0,744.0,241.0,25.626,0.0,3.07017544,1.0,-3.4807267,37.2188678
Beas de Segura,5115.0,2678.0,2437.0,32.094727557273266,159.37197132682454,1933.0,4128.0,1063.0,16.944,0.5476190479999999,0.0,1.0,-2.8908722,38.2526786
Becerreá,2826.0,1414.0,1412.0,16.42515645989373,172.05315559096258,674.0,1826.0,1001.0,20.558,0.74074074,0.0,1.0,-7.1616043,42.8544959
Becerril de la Sierra,6108.0,3042.0,3066.0,199.9418949862923,30.548875214065337,2068.0,4716.0,848.0,38.675,6.724806895,6.258298115,1.0,-3.9890699,40.7163522
Bedmar y Garcíez,2656.0,1344.0,1312.0,22.356313697298628,118.80312809892855,960.0,2099.0,583.0,15.925,0.0,0.0,0.0,0.0,0.0
Begíjar,2998.0,1503.0,1495.0,70.05954917053822,42.79216802697802,1183.0,2517.0,558.0,16.731,0.0,0.0,1.0,-3.5342046,37.9853073
Begonte,2976.0,1492.0,1484.0,23.47112384254188,126.79409899435412,652.0,1921.0,1116.0,23.253,0.0,0.7661679533333333,1.0,-7.6851632,43.150149
Begues,7356.0,3685.0,3671.0,145.99132160432922,50.386556674488425,2789.0,6072.0,889.0,48.464,9.470405166666668,7.569050886666666,1.0,1.925468,41.3328119
Begur,4039.0,2020.0,2019.0,193.6320099965744,20.859154434597126,1221.0,3103.0,831.0,40.272,5.23996611,5.5990615366666665,1.0,3.2088349,41.9541918
Béjar,12269.0,5811.0,6458.0,268.2646309123523,45.73469099625191,3717.0,9175.0,3786.0,22.783,3.2751555976923075,0.2353433230769231,1.0,-5.7649619,40.3865812
Belalcázar,3207.0,1557.0,1650.0,9.008359157400204,356.0026797294718,1123.0,2421.0,852.0,19.344,0.0,0.0,1.0,-5.1669539,38.575186
Belchite,1540.0,777.0,763.0,5.589089644130466,275.53682228326267,447.0,1071.0,457.0,23.922,0.0,2.92661618,1.0,-0.7547209,41.3061444
Bellpuig,5151.0,2737.0,2414.0,147.07958135674767,35.02185655197124,1926.0,4151.0,909.0,29.096,4.63358539,2.0646316833333334,1.0,1.0117111,41.6254383
Bellreguard,4632.0,2298.0,2334.0,1630.654821696642,2.8405766434250985,1555.0,3708.0,841.0,24.092,3.6,1.315789475,1.0,-0.1615484,38.9462948
Bellvei,2303.0,1183.0,1120.0,278.7550909938397,8.261732518639075,865.0,1796.0,394.0,27.538,6.75897966,3.65853659,2.0,1.4347249,41.4970593
Bellver de Cerdanya,2135.0,1106.0,1029.0,21.801143872134617,97.93064127836314,598.0,1540.0,439.0,36.573,5.37104647,4.9930035,1.0,1.7745202,42.3702061
Bellvís,2258.0,1153.0,1105.0,48.65062926160987,46.41255486867431,765.0,1701.0,565.0,27.156,4.21686747,1.2295082,1.0,0.8176989,41.6721394
Belmez,2905.0,1407.0,1498.0,14.007745515366151,207.3852638751387,953.0,2171.0,793.0,23.45,0.0,0.4513662975,2.0,-4.2962636,38.0088287
Bélmez de la Moraleda,1542.0,768.0,774.0,31.18904393951496,49.44043821895941,543.0,1191.0,376.0,16.108,0.0,0.0,1.0,-3.3823692,37.7238028
Belmonte,1810.0,891.0,919.0,19.539429598598016,92.63320563512612,561.0,1388.0,550.0,20.759,0.0,0.0,5.0,-5.23368404,42.33979954
Belmonte de Miranda,1439.0,770.0,669.0,6.917776688343124,208.014809501556,291.0,894.0,628.0,23.98,0.0,0.0,0.0,0.0,0.0
Belmonte de Tajo,1751.0,902.0,849.0,72.6948508068266,24.086988013125797,610.0,1356.0,271.0,25.22,5.17068273,3.89696424,1.0,-3.3398654,40.1336305
Belorado,1754.0,890.0,864.0,13.147158845288098,133.412855251888,548.0,1329.0,487.0,24.109,3.641625735,0.0,1.0,-3.1917821,42.4197032
Belver de Cinca,1307.0,757.0,550.0,15.819064410461156,82.62182680890282,412.0,959.0,333.0,24.076,0.0,2.23199469,1.0,0.1793943,41.6910541
Belvís de la Jara,1543.0,776.0,767.0,13.532276921077292,114.02367901566436,439.0,1012.0,517.0,20.076,0.0,0.0,1.0,-4.9496046,39.7594199
Bembibre,8455.0,4067.0,4388.0,133.3193673150486,63.41914284681451,2783.0,6882.0,2097.0,25.661,2.601281474285714,0.6763833057142856,3.0,-7.404305000000001,42.59290056666666
Benabarre,1162.0,601.0,561.0,7.394577800568083,157.14216975453692,334.0,783.0,324.0,24.791,3.88888889,3.32969624,1.0,0.4820182,42.1063137
Benacazón,7322.0,3688.0,3634.0,227.7427454444696,32.15031058710637,3124.0,6306.0,871.0,22.833,0.0,2.572471196,1.0,-6.1961281,37.3544497
Benaguasil,11369.0,5831.0,5538.0,451.0581219639871,25.20517744032045,4050.0,8855.0,2023.0,24.485,4.337854937142857,2.439664315714286,1.0,-0.588849,39.5942907
Benahadux,4526.0,2246.0,2280.0,272.3916308869257,16.61578215623966,1942.0,3857.0,500.0,22.462,4.336064645,1.935323705,1.0,-2.460209,36.9251533
Benahavís,7829.0,3871.0,3958.0,53.84755627749539,145.39192753064614,2928.0,6747.0,1242.0,43.159,8.758891735,3.911713285,1.0,-5.0441068,36.5222736
Benalmádena,70204.0,34383.0,35821.0,2608.842237906849,26.91002122701246,25232.0,57505.0,10241.0,30.392,8.03026104388889,3.8031048466666664,1.0,-4.572284,36.594519
Benalúa,3289.0,1620.0,1669.0,379.9791429447463,8.655738245291694,1404.0,2699.0,586.0,20.126,0.0,0.0,1.0,-3.1636896,37.35113
Benalúa de las Villas,1064.0,545.0,519.0,49.13397540277071,21.65507657945382,342.0,803.0,262.0,15.5,0.0,0.0,1.0,-3.6823181,37.4317716
Benalup-Casas Viejas,7020.0,3558.0,3462.0,116.27488568477006,60.37417245054746,2820.0,5995.0,974.0,20.263,1.3956401483333334,0.5234320516666667,1.0,-5.8137236,36.3449297
Benamargosa,1535.0,787.0,748.0,126.66197556577778,12.118869875062446,471.0,1108.0,388.0,13.831,0.0,0.0,1.0,-4.1935703,36.8352646
Benamaurel,2284.0,1134.0,1150.0,17.859913423196705,127.88415855552296,815.0,1747.0,550.0,18.016,0.0,0.0,1.0,-2.6970148,37.6084683
Benamejí,4982.0,2471.0,2511.0,93.38238484694016,53.350532952931374,2020.0,4112.0,863.0,17.194,0.0,0.0,1.0,-4.540364,37.2671843
Benamocarra,3030.0,1516.0,1514.0,528.1669711071644,5.73682219024108,1170.0,2510.0,489.0,17.695,0.0,0.0,1.0,-4.1616514,36.7912509
Benaoján,1470.0,747.0,723.0,45.94317979715364,31.99604395016368,510.0,1186.0,302.0,19.455,0.0,0.0,1.0,-5.2533743,36.7188117
Benasque,2239.0,1212.0,1027.0,9.596079846582972,233.32444454359936,802.0,1928.0,229.0,28.911,6.77966102,0.0,1.0,0.5237318,42.6052663
Benavent de Segrià,1533.0,810.0,723.0,202.89388077270291,7.555673902838807,545.0,1251.0,217.0,32.071,3.89982775,4.01234568,1.0,0.6327181,41.6957038
Benavente,17523.0,8428.0,9095.0,388.4059577894444,45.11516790249456,6356.0,14554.0,3541.0,24.182,3.3125273793333334,0.0,3.0,-7.068865566666666,41.386334
Benavides,2426.0,1198.0,1228.0,32.751318660532064,74.07335335549473,650.0,1637.0,860.0,23.429,1.60194175,0.0,0.0,0.0,0.0
Beneixama,1707.0,861.0,846.0,48.92762600262916,34.88826537196538,571.0,1291.0,412.0,24.749,0.0,2.50615764,1.0,-0.7641359,38.7008815
Benejúzar,5453.0,2736.0,2717.0,584.6107784363746,9.327573491862108,2047.0,4306.0,1055.0,21.998,0.8850442575,1.057985975,1.0,-0.8392077,38.0766016
Benetússer,15430.0,7511.0,7919.0,19820.82585467317,0.778474121771372,5143.0,11790.0,2878.0,25.518,5.224505641,0.0,1.0,-0.3974783,39.4228928
Benferri,1958.0,1010.0,948.0,158.3004275723555,12.368886363904751,726.0,1572.0,368.0,23.246,4.92063492,4.01785714,1.0,-0.9628468,38.1406587
Beniarbeig,2227.0,1143.0,1084.0,300.8267592141433,7.402931859578063,662.0,1569.0,414.0,24.781,5.54850746,4.81065919,1.0,-0.0018612,38.8221689
Beniarjó,1780.0,891.0,889.0,646.9601876875946,2.751328495748999,651.0,1457.0,289.0,24.281,3.87931034,3.48995153,1.0,-0.1870182,38.9324698
Beniarrés,1083.0,557.0,526.0,53.5755184662247,20.2144567333072,294.0,767.0,351.0,21.437,0.0,0.0,1.0,-0.3789225,38.8203655
Benicarló,27658.0,13799.0,13859.0,578.2212649451747,47.832900096855575,10031.0,21903.0,4841.0,24.56,4.178565718571429,1.3127585592857145,1.0,0.4229813,40.4180244
Benicull de Xúquer,1095.0,561.0,534.0,313.09521916618405,3.4973386144832768,343.0,798.0,176.0,23.09,4.73684211,0.0,1.0,-0.3821957,39.1853985
Benidoleig,1166.0,585.0,581.0,155.79205306911507,7.484335542344509,273.0,733.0,377.0,24.27,4.33469303,3.0475,1.0,-0.0319129,38.7917542
Benidorm,69118.0,34455.0,34663.0,1794.91385406797,38.50769764986317,23870.0,54228.0,13330.0,25.31,6.712952871333333,0.6452485691111112,1.0,-0.1290929,38.5406255
Beniel,11508.0,6008.0,5500.0,1138.287029685696,10.109928076029815,5009.0,9853.0,1421.0,20.666,2.1882774136363636,0.0,1.0,-1.001421,38.0467801
Benifaió,11967.0,5918.0,6049.0,593.756751571519,20.154718187753616,4101.0,9441.0,2489.0,27.49,4.012850515555556,0.7889647177777778,1.0,-0.426264,39.2854089
Benifairó de la Valldigna,1542.0,772.0,770.0,76.34224405367702,20.19851550231879,525.0,1194.0,386.0,24.922,0.0,2.30414747,1.0,-0.302872,39.0533163
Benifairó de les Valls,2268.0,1119.0,1149.0,521.9817097456329,4.344979829092518,773.0,1721.0,447.0,23.952,3.91897353,2.5210084,1.0,-0.2686309,39.7277183
Benigànim,5742.0,2917.0,2825.0,171.71581387950962,33.438970297919525,2143.0,4797.0,1102.0,24.396,1.8705337933333333,0.0,1.0,-0.4441621,38.9438844
Benijófar,3323.0,1614.0,1709.0,762.11072792512,4.3602587894898335,924.0,2303.0,1054.0,22.579,4.32835821,5.38682864,1.0,-0.7384165,38.0789755
Benimodo,2253.0,1146.0,1107.0,179.9275229852718,12.521708533632305,832.0,1853.0,388.0,24.03,3.39622642,3.23076923,1.0,-0.5267415,39.2135344
Beniparrell,2024.0,1025.0,999.0,559.4938516932081,3.617555392029288,682.0,1596.0,335.0,28.685,4.76190476,0.0,1.0,-0.4119964,39.3819923
Benirredrà,1547.0,743.0,804.0,3978.974212806852,0.3887936732589965,564.0,1255.0,321.0,30.37,4.75232964,0.0,1.0,-0.1926545,38.9617924
Benissa,11462.0,5626.0,5836.0,164.42201606959188,69.71085912940448,3413.0,8135.0,2633.0,26.789,3.1854466516666666,1.3431370316666669,1.0,0.0534016,38.7163735
Benissanet,1129.0,615.0,514.0,48.5870917837206,23.23662434923257,363.0,861.0,281.0,25.666,0.0,0.0,1.0,0.6342959,41.0572357
Berga,16682.0,8253.0,8429.0,740.1372700914084,22.53906224441277,5546.0,12590.0,3609.0,31.151,4.68983745923077,1.4998792207692306,1.0,1.8454758,42.1011456
Bergondo,6817.0,3331.0,3486.0,208.80827394383635,32.647173750565,1756.0,4727.0,1875.0,36.579,1.7363757100000001,3.69623177,1.0,-8.8946946,42.7764001
Berja,12708.0,6508.0,6200.0,68.3913765219781,185.81289990436417,5295.0,10550.0,1831.0,19.356,1.654443459,0.0,1.0,-2.945818,36.8428832
Berlanga,2306.0,1141.0,1165.0,18.04575309199103,127.78629898374464,751.0,1753.0,607.0,17.94,0.0,0.0,1.0,-5.8297126,38.2815011
Bermillo de Sayago,1008.0,533.0,475.0,5.317721402470784,189.55487204193335,212.0,654.0,383.0,22.176,0.0,0.0,1.0,-6.1117432,41.3652089
Bernuy de Porreros,788.0,412.0,376.0,84.99692671128156,9.27092343793425,293.0,668.0,92.0,25.624,5.4173913,0.0,1.0,-4.1172031,40.9962216
Besalú,2502.0,1175.0,1327.0,533.0215585279091,4.6939940045014055,838.0,1883.0,584.0,32.072,5.54761905,5.41917671,1.0,2.6959559,42.1986443
Bescanó,5094.0,2567.0,2527.0,141.2765182130442,36.05694749865138,1945.0,4173.0,768.0,34.061,4.446437406666667,5.5027254433333335,1.0,2.7389937,41.9670349
Betanzos,13030.0,6187.0,6843.0,538.1808323377727,24.211192998828544,3874.0,9807.0,3109.0,27.769,3.8459167833333336,1.1760310733333332,1.0,-8.2105792,43.279239
Bétera,25423.0,12655.0,12768.0,338.4496097354169,75.11605647846496,9235.0,20480.0,3167.0,43.485,4.425552333846154,5.154708443076923,1.0,-0.4622695,39.5917307
Betxí,5605.0,2773.0,2832.0,261.4493410634624,21.43818751732666,2051.0,4633.0,1076.0,25.919,3.315683516,0.0,1.0,-0.1974253,39.9288397
Biar,3628.0,1776.0,1852.0,36.95801090803485,98.16545617208138,1283.0,2895.0,756.0,26.577,2.2368110933333334,1.1776212833333333,1.0,-0.7646666,38.6305367
Bienvenida,2087.0,1074.0,1013.0,22.643246609841203,92.16876166039496,747.0,1640.0,488.0,18.677,0.0,0.0,2.0,-5.3649952,38.4722227
Biescas,1550.0,813.0,737.0,8.19701470080732,189.0932316916964,478.0,1164.0,315.0,29.014,6.25,4.50819672,2.0,0.0507526,42.5229054
Bigastro,6994.0,3514.0,3480.0,1706.6913190463442,4.0979876805772175,2721.0,5658.0,1044.0,22.528,3.1608491366666667,1.7804397766666664,1.0,-0.8996755,38.0628171
Bimenes,1691.0,816.0,875.0,51.8220236923622,32.630914030654274,411.0,1160.0,540.0,24.995,0.0,1.153974385,0.0,0.0,0.0
Binaced,1597.0,874.0,723.0,20.34661581648196,78.48971123278082,516.0,1187.0,368.0,27.865,0.0,2.85348023,1.0,0.2012837,41.8270159
Binéfar,9888.0,5234.0,4654.0,394.09559760142633,25.09035893874754,3463.0,7521.0,1914.0,29.083,4.610015772500001,3.769167875,1.0,0.2963994,41.8491553
Binissalem,8895.0,4472.0,4423.0,298.7794786773306,29.771120959770567,3268.0,7078.0,1238.0,33.41,6.3008854020000005,4.981756165999999,1.0,2.8420532,39.6889279
Blanca,6608.0,3390.0,3218.0,75.8082287372886,87.16731824588395,2559.0,5383.0,1181.0,21.098,1.694762964,0.874704492,2.0,-4.87587045,40.6232231
Blanes,40274.0,20054.0,20220.0,2265.7194385314924,17.775369410302304,13941.0,31486.0,7304.0,28.914,7.0195714449999995,2.003289583181818,1.0,2.7932391,41.6756178
Boadilla del Monte,59052.0,28833.0,30219.0,1243.342586045659,47.49455271841823,22591.0,46840.0,5786.0,70.869,7.297383710740741,5.724472710370371,1.0,-3.8764663,40.4053485
Boal,1452.0,732.0,720.0,12.071325609243996,120.28504962935352,307.0,961.0,610.0,23.011,3.29113924,2.39130435,1.0,-6.8172064,43.4290269
Boborás,2206.0,1052.0,1154.0,25.118840445128345,87.82252528013655,429.0,1234.0,1065.0,19.236,0.0,0.0,1.0,-8.1430006,42.4317763
Bocairent,4101.0,2068.0,2033.0,42.286859080968256,96.98048256900942,1296.0,3232.0,982.0,26.339,3.6232672166666666,0.9849672266666666,1.0,-0.610892,38.7669181
Boecillo,4219.0,2147.0,2072.0,174.9260192819298,24.11876756424784,1662.0,3715.0,439.0,42.727,3.64507815,4.085576256666667,1.0,-4.6993793,41.5406814
Boimorto,1943.0,972.0,971.0,23.585943880313163,82.3795736078976,410.0,1258.0,764.0,22.302,0.0,0.0,1.0,-7.9045824,42.4383593
Boiro,18955.0,9206.0,9749.0,219.6391227008133,86.30065430474336,6340.0,14869.0,3975.0,24.063,2.399713208666667,0.0,3.0,-8.222460866666667,42.8061472
Bolaños de Calatrava,11992.0,6165.0,5827.0,136.44716000913968,87.8875016467674,4856.0,9797.0,2087.0,21.811,1.481192517142857,1.6348779642857143,1.0,-3.6629811,38.9062533
Bolbaite,1336.0,674.0,662.0,33.07960314406445,40.38742527174851,432.0,1020.0,327.0,20.841,0.0,0.0,1.0,-0.6744835,39.0609622
Bollullos de la Mitación,11099.0,5546.0,5553.0,177.4043061651321,62.56330660693653,4498.0,9415.0,1232.0,29.217,0.0,4.624203368333333,1.0,-6.1376821,37.3399004
Bollullos Par del Condado,14392.0,7142.0,7250.0,291.8835113633394,49.30734159246392,5509.0,11541.0,2573.0,20.742,1.3871424912499999,0.94823991125,1.0,-6.5384658,37.3382055
Boltaña,1065.0,573.0,492.0,7.636829547614385,139.4557772122448,321.0,813.0,173.0,27.363,4.27981802,3.68852459,1.0,0.0675933,42.4459826
Boñar,1819.0,928.0,891.0,10.07053122659038,180.6260225078381,462.0,1293.0,557.0,22.496,3.47807248,0.0,1.0,-5.3233221,42.866767
Bonares,6075.0,3036.0,3039.0,93.79332208296243,64.77006960715728,2370.0,5112.0,948.0,20.918,1.2682123733333335,3.2622692699999996,1.0,-6.683161,37.3214037
Bonrepòs i Mirambell,3780.0,1852.0,1928.0,3572.347757500921,1.0581276674598847,1388.0,3122.0,523.0,28.012,5.6265359749999995,0.0,1.0,-0.3655773,39.5174981
Boqueixón,4186.0,2050.0,2136.0,57.2006163837516,73.18102958745519,1312.0,3183.0,1032.0,26.636,1.114864865,1.01,2.0,-8.109507149999999,43.21301915
Bordils,1796.0,904.0,892.0,256.8176626301443,6.99328847403501,655.0,1410.0,291.0,42.014,6.09564733,3.77358491,1.0,2.9116018,42.0440682
Borja,5037.0,2577.0,2460.0,46.97204647486802,107.23399080972555,1795.0,3933.0,989.0,26.01,4.16907494,1.17569334,1.0,-1.5337542,41.8348235
Bormujos,22390.0,11110.0,11280.0,1816.6678157891563,12.324762846241008,9516.0,19998.0,1966.0,34.766,4.321411996923077,5.452726712307693,1.0,-6.07133,37.3715939
Bornos,7655.0,3822.0,3833.0,138.9445374644298,55.09392553096736,2953.0,6459.0,1291.0,18.137,0.0,0.3322259142857143,1.0,-5.7434863,36.8157427
Borox,3981.0,2088.0,1893.0,66.29333031399489,60.05128994341062,1501.0,3161.0,545.0,22.84,5.1480074049999995,3.4181489899999997,1.0,-3.7411508,40.06967
Borriana/Burriana,34903.0,17321.0,17582.0,743.5562477140937,46.94063173741312,13066.0,28547.0,5997.0,27.115,3.9031598533333334,1.1801068445833334,1.0,-0.0846321,39.8876912
Borriol,5552.0,2835.0,2717.0,90.1942543266842,61.55602750359928,2041.0,4567.0,755.0,32.279,3.8133316799999997,3.434231046666666,1.0,-0.0714919,40.0422215
Bossòst,1120.0,546.0,574.0,40.20590114854907,27.85660731398426,386.0,907.0,203.0,30.339,5.35714286,3.57653699,1.0,0.69312,42.7859893
Botarell,1094.0,559.0,535.0,91.48676203764504,11.958014204829327,401.0,925.0,145.0,33.282,5.95262557,0.0,1.0,0.9897786,41.1362847
Bóveda,1407.0,718.0,689.0,15.44258653574066,91.11167981760104,296.0,927.0,576.0,22.935,0.0,0.0,7.0,-7.075243928571429,42.78882498571429
Brazatortas,1002.0,523.0,479.0,3.689263280871364,271.5989409580274,291.0,698.0,302.0,22.109,0.0,0.0,1.0,-4.2935853,38.6570361
Brea de Aragón,1559.0,793.0,766.0,116.5519747579186,13.376006740667265,503.0,1244.0,421.0,21.912,2.56648363,0.0,1.0,-1.6007466,41.5232308
Breda,3836.0,1894.0,1942.0,765.5085307689234,5.011048010329667,1275.0,2941.0,792.0,30.052,5.064599295,4.469828215,1.0,2.5613326,41.7484044
Brenes,12581.0,6221.0,6360.0,580.1509044704414,21.68573711262912,5212.0,10746.0,1862.0,21.249,2.31893770375,2.7304174199999998,1.0,-5.8724046,37.5494873
Brihuega,2467.0,1297.0,1170.0,8.322895089208904,296.4112815982269,701.0,1772.0,627.0,25.537,4.13033564,1.50974026,1.0,-2.8703477,40.7592489
Brión,7957.0,3817.0,4140.0,106.4728258846129,74.732683517043,2641.0,6205.0,1543.0,29.878,3.393349982,2.7398073419999998,4.0,-8.671532975,43.009183525
Briviesca,6465.0,3227.0,3238.0,79.61448726249544,81.20381380695663,2314.0,5428.0,1247.0,25.228,3.73315047,0.7217847775,1.0,-3.3218059,42.549796
Brozas,1790.0,886.0,904.0,4.488129433540191,398.82985250451344,536.0,1289.0,578.0,20.039,0.0,0.0,1.0,-6.7782723,39.6111187
Brunete,10726.0,5284.0,5442.0,218.0001594918805,49.20179886565401,4350.0,9349.0,1247.0,35.701,8.201605958,4.523666538,1.0,-3.9979912,40.4050499
Bueu,11987.0,5889.0,6098.0,393.1177318758529,30.49213766777,4027.0,9496.0,2652.0,27.964,1.4586650288888887,0.0,1.0,-8.7863966,42.3272768
Búger,1084.0,578.0,506.0,130.79616134964874,8.287704996954876,346.0,806.0,248.0,32.713,0.0,4.90476711,1.0,2.9856092,39.759085
Buitrago del Lozoya,1940.0,930.0,1010.0,74.75775426590438,25.95048525801955,720.0,1501.0,374.0,29.445,5.15368383,4.66101695,1.0,-3.6350501,40.9953477
Bujalance,7316.0,3658.0,3658.0,58.6157741370047,124.81281886510716,2878.0,6072.0,1465.0,18.243,0.0,0.0,1.0,-4.3810054,37.8950265
Bullas,11619.0,5824.0,5795.0,140.8441300639291,82.49545078468049,4383.0,9373.0,2174.0,21.936,0.5676190475,0.29590958333333334,2.0,-4.59178515,40.59115765
Buñol,9438.0,4719.0,4719.0,83.96458015852886,112.40453989266231,3242.0,7406.0,2111.0,26.843,3.5631439414285713,0.4721083385714286,1.0,-0.7909637,39.4189582
Bunyola,7037.0,3456.0,3581.0,83.08568873741275,84.6956931685312,2488.0,5555.0,1159.0,42.58,4.26414244,6.76439151,1.0,2.6989574,39.6961887
Burela,9428.0,4717.0,4711.0,1232.7028331923982,7.648234226560339,3289.0,7883.0,1683.0,27.9,3.2034160283333333,0.24287864,1.0,-7.3587521,43.6606329
Burgo de Osma-Ciudad de Osma,5034.0,2533.0,2501.0,17.39786456384116,289.3458551495113,1637.0,3711.0,1215.0,26.145,2.8951284966666666,0.0,0.0,0.0,0.0
Burgohondo,1231.0,651.0,580.0,22.24559995330808,55.336785817590034,341.0,821.0,375.0,21.109,2.8300706,2.55905512,1.0,-4.785769,40.414358
Burgos,174051.0,82859.0,91192.0,1625.690058164912,107.06284332972407,60288.0,137707.0,38214.0,31.069000000000003,6.389926961125828,0.37126341860927153,1.0,-3.696977,42.343926
Burguillos,6902.0,3481.0,3421.0,159.98192760602117,43.14237303726694,2983.0,5955.0,663.0,21.093,1.02936457,3.1870591175,1.0,-5.9678094,37.5858509
Burguillos de Toledo,3390.0,1758.0,1632.0,119.33370139801042,28.407733609916495,1338.0,2874.0,310.0,30.108,2.40872726,3.92485915,1.0,-3.9915094,39.7983122
Burguillos del Cerro,3076.0,1518.0,1558.0,16.402620411060177,187.53101168675917,1060.0,2391.0,694.0,19.372,1.18224759,1.037037035,1.0,-6.5907481,38.3798701
Burjassot,38712.0,18672.0,20040.0,11257.906180501035,3.438650081047052,13967.0,30920.0,6664.0,25.241,5.0587336246153844,0.4085110084615385,1.0,-0.4108581,39.5090599
Burujón,1316.0,666.0,650.0,37.12309190309677,35.44963343665403,495.0,1021.0,287.0,22.248,0.0,0.0,2.0,-4.29885375,39.90113155
Busot,3207.0,1628.0,1579.0,94.76431176798424,33.84185396557138,935.0,2215.0,710.0,26.594,0.0,5.56991672,1.0,-0.417211,38.4848359
Bustarviejo,2701.0,1366.0,1335.0,48.08645201040258,56.169667069961626,849.0,2116.0,370.0,32.821,5.94117647,5.0,1.0,-3.7097632,40.8587766
Bustillo del Páramo,1113.0,575.0,538.0,15.507506302868602,71.7716941887759,208.0,687.0,497.0,20.085,0.0,0.0,2.0,-4.83584145,42.49624675
Cabana de Bergantiños,4185.0,2022.0,2163.0,41.88122792971501,99.92543692900452,1057.0,2893.0,1444.0,22.127,1.06707317,0.0,0.0,0.0,0.0
Cabanas,3359.0,1645.0,1714.0,111.60792329380122,30.09642954432216,841.0,2302.0,1016.0,30.825,3.58997328,3.584094126666667,39.0,-7.811058241025641,42.915183897435895
Cabañas de la Sagra,1955.0,1018.0,937.0,118.34593639322313,16.519367369777722,725.0,1517.0,272.0,23.039,3.98907104,4.09090909,1.0,-3.9479133,40.005774
Cabañas Raras,1331.0,688.0,643.0,69.63482204942301,19.1140001629548,354.0,985.0,345.0,25.624,0.0,3.07692308,1.0,-6.636473,42.6201168
Cabanes,3027.0,1537.0,1490.0,23.00862209190795,131.55937751981182,1307.0,2979.0,854.0,22.892,2.3965256166666666,2.722051843333333,4.0,-1.763257925,42.2949843
Cabanes,941.0,504.0,437.0,62.72384064160062,15.002270115709342,1307.0,2979.0,854.0,22.892,2.3965256166666666,2.722051843333333,4.0,-1.763257925,42.2949843
Cabanillas del Campo,10844.0,5447.0,5397.0,310.6384115672981,34.90875434653292,4331.0,9206.0,917.0,35.968,5.158250818,4.634080448000001,1.0,-3.2337196,40.6362915
Cabeza del Buey,4732.0,2351.0,2381.0,9.961658738681312,475.0212915471148,1599.0,3689.0,1240.0,18.969,0.0,0.2556022416666667,1.0,-5.2211611,38.7211592
Cabeza la Vaca,1298.0,665.0,633.0,20.28098049453409,64.0008504692277,444.0,975.0,356.0,17.278,0.0,0.0,1.0,-6.4207589,38.0856158
Cabezón de la Sal,8273.0,3953.0,4320.0,248.97262007974464,33.22855339414511,2846.0,6786.0,1563.0,27.14,3.776426865,1.9086579366666667,1.0,-4.2358532,43.3080667
Cabezón de Pisuerga,3747.0,1907.0,1840.0,82.52218665660504,45.40597082808992,1395.0,3281.0,412.0,26.843,5.366162805,3.7269382450000004,1.0,-4.6458137,41.7339524
Cabezuela del Valle,2141.0,1099.0,1042.0,37.84636539462763,56.570821997716045,669.0,1598.0,553.0,16.072,1.561343205,0.0,2.0,-5.805638399999999,40.19305905
Cabra,20245.0,9870.0,10375.0,88.37641566988592,229.07695278819105,7447.0,16331.0,4086.0,21.879,3.1450677620000005,0.8636187346666666,1.0,-4.4335616,37.4718153
Cabra del Camp,1230.0,647.0,583.0,45.80266315978506,26.854333681626297,396.0,914.0,227.0,27.141,0.0,4.99066196,1.0,1.2772435,41.3952451
Cabra del Santo Cristo,1786.0,937.0,849.0,9.549182322323992,187.031720592946,677.0,1437.0,403.0,15.416,0.0,0.0,1.0,-3.2867065,37.7036217
Cabrales,1942.0,977.0,965.0,8.131385179022189,238.8276975256421,505.0,1398.0,604.0,21.179,2.07107843,1.699600695,0.0,0.0,0.0
Cabranes,1111.0,565.0,546.0,28.99684645881684,38.31451125479844,246.0,698.0,337.0,23.021,0.0,3.3109136,0.0,0.0,0.0
Cabrera de Mar,4787.0,2399.0,2388.0,530.5669774133231,9.022423565330232,1740.0,3887.0,777.0,53.476,10.528020115,9.165969895,1.0,2.3925117,41.5276986
Cabrerizos,4284.0,2132.0,2152.0,368.7721166101777,11.616930367131143,1648.0,3743.0,513.0,34.931,4.597180015,4.067628215,1.0,-5.6090032,40.9786623
Cabrils,7567.0,3752.0,3815.0,1083.8570066788866,6.981548260860087,2910.0,6311.0,1037.0,58.951,8.83613287,8.002800743333333,1.0,2.3676258,41.5262354
Cacabelos,4888.0,2410.0,2478.0,149.6430622239761,32.66439437522306,1514.0,3781.0,1351.0,24.04,1.6773903749999999,0.748000865,9.0,-7.735250166666666,42.58508555555555
Cáceres,95418.0,45735.0,49683.0,54.5174327471092,1750.2291504190382,35358.0,79918.0,16150.0,26.4325,4.436296580140845,0.9175188159154929,1.0,-6.3716761,39.4745175
Cadalso de los Vidrios,3203.0,1651.0,1552.0,66.89984075667016,47.877542962322366,1120.0,2388.0,661.0,26.315,3.6762256549999996,3.39430894,1.0,-4.4408876,40.3014283
Cadaqués,2820.0,1378.0,1442.0,105.99923183684976,26.60396637911908,980.0,2275.0,477.0,33.765,8.5464829,4.86906362,1.0,3.2752159,42.2893484
Cádiar,1492.0,799.0,693.0,31.530930490397424,47.31861625378866,466.0,1094.0,375.0,19.111,0.0,0.0,1.0,-3.1802705,36.9462307
Cádiz,114244.0,53995.0,60249.0,9286.82451145046,12.301729171164972,37776.0,89924.0,27055.0,29.054499999999997,7.660893925887851,0.0,1.0,-6.2928976,36.5297438
Cadrete,4334.0,2281.0,2053.0,364.2639764145577,11.897964884311282,1533.0,3433.0,458.0,31.6,6.412047515,4.329475035,1.0,-0.9611928,41.5556662
Cájar,5262.0,2592.0,2670.0,3190.7869693455264,1.6491229438232624,2026.0,4330.0,740.0,31.89,4.4717071325,4.096402535,1.0,-3.5712824,37.1342232
Cala,1158.0,584.0,574.0,13.796016033052393,83.93727560374475,402.0,943.0,241.0,19.608,0.0,3.64280737,1.0,-6.3168307,37.9719249
Calaf,3597.0,1805.0,1792.0,388.61473823684486,9.255953637578653,1321.0,2820.0,727.0,30.437,4.158818195,3.248787905,1.0,1.5150275,41.7323852
Calafell,28463.0,14280.0,14183.0,1397.867996481805,20.361722331176125,8864.0,20466.0,4978.0,30.784,6.92205152,5.757513073636364,1.0,1.5680321,41.2014639
Calahorra,24579.0,12055.0,12524.0,262.6803692155521,93.56999182466808,8925.0,19459.0,4464.0,27.412,4.850725517142857,0.0,1.0,-1.9648758,42.3035212
Calamocha,4473.0,2216.0,2257.0,14.127042550763354,316.6267804409141,1545.0,3416.0,903.0,26.311,2.457211146666667,1.7287872100000001,1.0,-1.299434,40.9198824
Calamonte,6152.0,3034.0,3118.0,783.2279378330117,7.854673847591528,2453.0,5144.0,1097.0,19.926,0.697374085,0.283314705,1.0,-6.3863706,38.8890569
Calañas,2763.0,1408.0,1355.0,11.617710910402613,237.8265409863128,1428.0,3203.0,874.0,24.155,0.0,0.0,1.0,-6.8786335,37.6545062
Calanda,3753.0,1864.0,1889.0,33.43436472696435,112.24977745646407,1253.0,2908.0,800.0,23.716,2.1895407299999996,2.38692309,1.0,-0.2314866,40.9403014
Calasparra,10133.0,5141.0,4992.0,54.60902486090855,185.5554100409076,3804.0,8162.0,2003.0,21.742,2.291129901111111,0.0,1.0,-1.7000042,38.2309457
Calatayud,19870.0,9778.0,10092.0,128.1208882192213,155.08790390214455,7355.0,16125.0,3910.0,27.589,4.294335067857143,0.31037415,1.0,-1.6422977,41.3527628
Calatorao,2921.0,1527.0,1394.0,60.3207713631768,48.42444706837989,1018.0,2245.0,616.0,23.662,3.608088985,2.849317245,1.0,-1.3464441,41.5222363
Caldas de Reis,9788.0,4728.0,5060.0,143.40170899168024,68.255811376473,3278.0,7657.0,2203.0,23.63,0.93329941875,0.32407407375,1.0,-8.6421712,42.6041056
Calders,1063.0,539.0,524.0,32.19169665224881,33.02093740143834,317.0,772.0,174.0,35.4,3.48757228,4.43696562,1.0,1.9916386,41.7892144
Caldes de Malavella,8051.0,4024.0,4027.0,141.28766597566164,56.98303489128961,2771.0,6222.0,1236.0,34.77,3.6016414125000002,5.7222785775,1.0,2.8097485,41.839282
Caldes de Montbui,17797.0,8850.0,8947.0,473.8510486895821,37.55821591873007,6371.0,14335.0,3114.0,35.481,5.948857509,5.443006873,1.0,2.1676442,41.632265
Calella,19236.0,9356.0,9880.0,2430.62288627401,7.91402076752744,6489.0,14946.0,3782.0,29.872,7.447478728888888,3.665992407777778,1.0,2.6576102,41.6132925
Calera y Chozas,4641.0,2347.0,2294.0,21.18760281777728,219.0431848243827,1692.0,3703.0,937.0,22.661,0.9716506633333334,2.62503776,1.0,-4.9791609,39.8826545
Càlig,2002.0,1012.0,990.0,72.88902646627209,27.46641157193099,640.0,1498.0,447.0,23.284,3.65075248,2.06068841,1.0,0.3548686,40.4619719
Calldetenes,2504.0,1274.0,1230.0,437.80432218408737,5.719450158710679,924.0,2078.0,419.0,36.324,6.2295082,4.86928265,1.0,2.2834318,41.9257651
Callosa de Segura,19273.0,9835.0,9438.0,773.7775991600266,24.907673756544234,8060.0,15894.0,2970.0,22.485,2.2028245972727274,0.7829497945454545,1.0,-0.8778548,38.1251825
Callús,2098.0,1036.0,1062.0,169.27791417903202,12.393820009981392,809.0,1726.0,369.0,32.154,5.49809626,3.84615385,1.0,1.7837664,41.7824664
Calp,23530.0,11801.0,11729.0,995.4429086779452,23.63771924524568,7344.0,16658.0,4975.0,25.976,5.920417264285715,2.825905457142857,1.0,0.046012,38.6443252
Calvarrasa de Abajo,1169.0,620.0,549.0,41.51315889987821,28.1597457524108,339.0,905.0,247.0,23.266,4.52397444,3.38386728,1.0,-5.5525911,40.9466557
Calvià,51567.0,25858.0,25709.0,355.0344777197794,145.24504868144288,19077.0,42465.0,6868.0,36.941,9.9449497544,6.1427125160000005,1.0,2.5046323,39.5650931
Calzada de Calatrava,3615.0,1801.0,1814.0,8.799394741278391,410.8237107538611,1205.0,2784.0,1018.0,20.843,0.7019233739999999,0.0,1.0,-3.7766972,38.7043087
Camarena,4243.0,2215.0,2028.0,64.07829771823482,66.215866386734,1405.0,3119.0,626.0,23.246,4.831878355,3.476036865,1.0,-4.1212536,40.0925817
Camargo,30497.0,14897.0,15600.0,824.6063842995696,36.983705899760295,10181.0,24748.0,5515.0,29.035,3.229835011904762,2.308579705238095,2.0,-3.87325,43.41902
Camariñas,5224.0,2552.0,2672.0,99.23042633242277,52.64514315901009,1497.0,3778.0,1544.0,21.433,1.061436416,0.0,1.0,-9.1825585,43.1310578
Camarles,3220.0,1647.0,1573.0,107.86785401401876,29.85134013680777,1157.0,2514.0,764.0,23.711,2.36235119,1.29310345,1.0,0.6738724,40.7735425
Camarma de Esteruelas,7555.0,3799.0,3756.0,214.57625622859956,35.20892820476491,3009.0,6475.0,751.0,32.728,5.139824046666667,5.297858096666666,1.0,-3.3785043,40.5497252
Camas,27490.0,13482.0,14008.0,2371.0959721718245,11.593794735697818,10513.0,22761.0,4702.0,25.573,5.421305998333334,1.8912142433333332,2.0,-5.744680150000001,40.396379
Cambados,13673.0,6600.0,7073.0,584.107299086336,23.408370382269467,4735.0,10949.0,2865.0,22.497,2.350404921111111,0.0,1.0,-8.8138414,42.51439
Cambil,2662.0,1389.0,1273.0,19.030086497810156,139.8837572444205,983.0,2079.0,660.0,14.973,0.0,0.0,1.0,-3.5649212,37.6768457
Cambre,24616.0,11986.0,12630.0,604.2088893868226,40.74087692582839,8286.0,20485.0,4118.0,30.356,3.4043340826666664,2.2084061746666666,3.0,-8.601586866666667,43.28669593333333
Cambrils,35064.0,17150.0,17914.0,995.4284189752506,35.225034097476176,12706.0,28029.0,5333.0,35.83,7.23579436375,3.1924980937500003,2.0,1.2260613,41.60092045
Caminomorisco,1161.0,604.0,557.0,7.884987231611798,147.24183640341494,364.0,863.0,322.0,19.555,0.0,1.46592282,1.0,-6.2911549,40.3263492
Campanario,4823.0,2375.0,2448.0,18.743449680993766,257.3165602962948,1720.0,3708.0,1259.0,19.491,0.0,0.0,1.0,-5.6180261,38.8633863
Campanet,2684.0,1352.0,1332.0,77.45694855554625,34.6515070636334,908.0,2042.0,570.0,33.42,2.91022528,4.641047295,1.0,2.9651254,39.7750599
Campaspero,1047.0,584.0,463.0,22.376860173773995,46.78940619323792,245.0,734.0,368.0,23.563,0.0,0.0,1.0,-4.1940936,41.491752
Campdevànol,3225.0,1567.0,1658.0,98.77247112901904,32.650797971708386,946.0,2359.0,845.0,30.35,3.31997091,2.6982720533333335,1.0,2.1680717,42.2230582
Campillo de Altobuey,1246.0,623.0,623.0,7.226887703619245,172.41170073474365,412.0,941.0,403.0,19.617,0.0,1.099494975,1.0,-1.7928416,39.611263
Campillo de Arenas,1743.0,878.0,865.0,14.937254431252882,116.68811079184408,684.0,1405.0,379.0,18.199,0.0,0.0,1.0,-3.6353369,37.5552182
Campillo de Llerena,1333.0,666.0,667.0,5.695675023211797,234.03722904968689,476.0,1064.0,309.0,16.992,0.0,0.0,1.0,-5.8323972,38.5006708
Campillos,8301.0,4162.0,4139.0,44.285580192244815,187.44250304422232,3342.0,7064.0,1453.0,22.303,1.9886339120000003,1.118899734,1.0,-4.8621698,37.0470137
Campo de Criptana,13229.0,6614.0,6615.0,43.60330275309655,303.394448693695,5172.0,10843.0,2754.0,24.183,1.5586230220000001,0.7223258190000001,1.0,-3.1254826,39.4052539
Campo Lameiro,1769.0,831.0,938.0,27.742206042491176,63.76565718279657,428.0,1178.0,628.0,21.578,0.0,0.0,0.0,0.0,0.0
Campo Real,6416.0,3251.0,3165.0,103.79833741812776,61.81216539292549,2470.0,5328.0,747.0,28.779,6.728552616666666,4.959646213333333,3.0,-4.2501880666666665,41.6673231
Camponaraya,4105.0,2017.0,2088.0,140.92758450005562,29.12843510773705,1319.0,3254.0,808.0,23.611,2.43938644,1.7735480633333331,1.0,-6.6675865,42.5775672
Campoo de Enmedio,3692.0,1876.0,1816.0,40.43402128434828,91.30924609344127,1134.0,2852.0,898.0,28.021,2.3552445300000002,0.0,0.0,0.0,0.0
Camporrobles,1204.0,616.0,588.0,13.452958289490484,89.49704400262436,350.0,859.0,336.0,19.999,0.0,2.5210084,1.0,-1.4009335,39.6472415
Campos,11425.0,5698.0,5727.0,76.3450161114093,149.64958528959698,3951.0,8714.0,1896.0,30.896,6.5900424,4.83151021,20.0,-7.182675315,42.470591195
Campos del Río,2061.0,982.0,1079.0,43.83821318384,47.01377748579731,772.0,1633.0,412.0,20.683,0.0,0.0,1.0,-1.3525268,38.0405009
Campotéjar,1228.0,619.0,609.0,34.28232615246637,35.820206439277875,449.0,972.0,281.0,17.731,0.0,0.0,1.0,-3.616724,37.4813569
Camprodon,2435.0,1193.0,1242.0,23.51001316962821,103.57288966327312,645.0,1665.0,596.0,34.582,5.519910715,3.437893215,1.0,2.364926,42.3127896
Camuñas,1726.0,894.0,832.0,16.915759494878543,102.03502837236294,624.0,1302.0,438.0,19.744,0.0,0.0,1.0,-3.4551614,39.4283079
Cañada,1191.0,590.0,601.0,61.63338313904926,19.32394328107902,427.0,964.0,250.0,23.829,0.0,0.0,1.0,-0.8099623,38.6752399
Cañada Rosal,3347.0,1652.0,1695.0,129.60266063171056,25.82508710612899,1343.0,2748.0,559.0,18.55,0.0,0.0,1.0,-5.2104153,37.5976936
Canals,13257.0,6636.0,6621.0,606.4599003327888,21.8596480867496,4923.0,11142.0,2446.0,22.719,2.8731097925,0.0,1.0,-0.5832175,38.9623954
Cañamero,1622.0,852.0,770.0,10.709904978378123,151.44858925215513,497.0,1219.0,415.0,17.335,0.0,0.72815534,1.0,-5.3892464,39.3801055
Cañaveral,1024.0,506.0,518.0,11.841074262843875,86.47864013598928,226.0,664.0,355.0,19.762,0.0,0.0,1.0,-6.3933113,39.7897226
Candamo,1967.0,964.0,1003.0,27.32888809646681,71.97511999232422,433.0,1319.0,666.0,26.18,0.0,3.5089022200000004,1.0,-5.9143896,43.52549
Candeleda,5049.0,2550.0,2499.0,23.6520880657344,213.46952480337924,1510.0,3717.0,1281.0,20.063,2.766876045,1.68312532,1.0,-5.2409617,40.1557248
Canena,1822.0,944.0,878.0,126.9094101881747,14.356697405641022,660.0,1452.0,430.0,20.343,0.0,0.0,1.0,-3.4816832,38.0481647
Canet de Mar,14810.0,7227.0,7583.0,2682.878093392632,5.520191184412715,4961.0,11540.0,3043.0,33.06,7.747658018999999,4.34317351,1.0,2.5777998,41.5900933
Cañete de las Torres,2888.0,1489.0,1399.0,27.897956726365084,103.5201261628843,1019.0,2266.0,703.0,18.288,0.0,0.0,1.0,-4.3184903,37.8666708
Cañete la Real,1633.0,811.0,822.0,9.8986351840639,164.97223805449607,482.0,1288.0,403.0,19.384,0.0,0.0,1.0,-5.0246722,36.9515951
Cangas,26708.0,13265.0,13443.0,705.8698850624237,37.83700164179419,8519.0,21232.0,5255.0,27.64,4.029384677222222,1.0514130672222222,6.0,-8.1015347,42.94335993333333
Cangas de Onís,6195.0,2996.0,3199.0,29.052431982753472,213.23516061159927,1884.0,4741.0,1537.0,24.15,2.4324808475,2.962499285,1.0,-5.1285448,43.3512573
Cangas del Narcea,11966.0,5865.0,6101.0,14.529273270139624,823.5787005666945,3417.0,8965.0,3614.0,26.456,2.008565732727273,0.2795913327272727,1.0,-6.5499784,43.1774374
Caniles,4038.0,2065.0,1973.0,18.629378473434542,216.75441323811097,1383.0,3062.0,998.0,18.773,0.0,0.0,1.0,-2.722409,37.4362471
Canillas de Aceituno,1704.0,886.0,818.0,40.52270373078731,42.05050115413148,452.0,1168.0,452.0,18.238,0.0,4.63084455,1.0,-4.0821261,36.8731665
Canjáyar,1178.0,619.0,559.0,17.601365245714025,66.92662663124077,320.0,821.0,381.0,16.68,0.0,0.0,1.0,-2.7406217,37.0104452
Canovelles,16872.0,8753.0,8119.0,2482.7862459174867,6.795591053294697,6701.0,13833.0,2484.0,29.306,7.18107954,2.85054705125,1.0,2.28288,41.6173948
Cànoves i Samalús,3219.0,1642.0,1577.0,112.06787786764828,28.72366338373629,1086.0,2483.0,512.0,35.573,0.0,6.24189189,0.0,0.0,0.0
Cantalejo,3522.0,1742.0,1780.0,44.33744000800269,79.43625070288894,1273.0,2764.0,779.0,26.524,3.7723282866666668,1.8320171666666667,1.0,-3.9274383,41.2582596
Cantillana,10755.0,5447.0,5308.0,100.48306986174768,107.03295604719835,4441.0,8996.0,1665.0,20.131,0.5056390971428572,1.1911412642857144,1.0,-5.8244449,37.6088766
Cantimpalos,1346.0,716.0,630.0,51.19034002404393,26.294023430354017,449.0,1009.0,312.0,24.953,5.62192118,0.0,1.0,-4.157959,41.0749779
Cantoria,3547.0,1790.0,1757.0,44.92605634104815,78.95195547709734,922.0,2277.0,951.0,20.708,0.0,1.4794686,1.0,-2.1934809,37.3524561
Canyelles,4886.0,2533.0,2353.0,346.2821290778928,14.109882057762624,1602.0,3825.0,656.0,38.137,4.49297189,6.44975904,2.0,2.4402287,41.5839172
Capdepera,12003.0,6078.0,5925.0,218.2357667189188,55.00015043574185,4659.0,10058.0,1542.0,26.95,6.108470229999999,5.325968775,1.0,3.4321679,39.7023418
Capellades,5314.0,2647.0,2667.0,1819.81834693638,2.920071670310386,1771.0,4088.0,1123.0,30.697,4.959591546666666,1.5907482966666666,1.0,1.684787,41.53
Carabaña,2142.0,1076.0,1066.0,44.92989665792953,47.67426945821754,700.0,1552.0,353.0,25.647,5.3030303,4.83665995,1.0,-3.2375165,40.2566206
Caravaca de la Cruz,25611.0,12803.0,12808.0,29.773288314873053,860.200584132529,10131.0,21173.0,4557.0,24.139,2.156760423846154,0.11334172192307693,1.0,-1.861118,38.1046979
Carbajosa de la Sagrada,7368.0,3673.0,3695.0,542.4435154592524,13.582981066262697,3059.0,6499.0,448.0,33.2,3.3743764375,1.14770459,1.0,-5.6508263,40.9329307
Carballeda de Avia,1249.0,610.0,639.0,26.93557932883868,46.369895547884255,256.0,751.0,566.0,19.683,0.0,0.0,1.0,-8.1648727,42.3208186
Carballeda de Valdeorras,1460.0,759.0,701.0,6.5566416082954255,222.67497405269435,370.0,1066.0,508.0,23.784,0.861023615,0.0,0.0,0.0,0.0
Carballedo,2123.0,1065.0,1058.0,15.289645458092394,138.85214054302048,419.0,1332.0,903.0,20.807,0.0,0.0,12.0,-7.7802507,42.88196635
Carballo,31414.0,15347.0,16067.0,167.49244597189724,187.55472712644487,9917.0,24057.0,7204.0,24.865,1.4706640989285715,0.12952211857142856,10.0,-8.09363889,42.87365334
Carboneras,8183.0,4205.0,3978.0,85.54298762540809,95.65950672465728,3154.0,6629.0,1128.0,26.102,3.589228416,3.176421426,2.0,-4.2194722,37.457629
Carbonero el Mayor,2502.0,1283.0,1219.0,37.70817824813368,66.35165410367799,911.0,1967.0,562.0,25.749,3.2418060950000003,2.5249139300000003,1.0,-4.2652816,41.1223601
Carcaboso,1080.0,544.0,536.0,53.21382228069328,20.295478763077675,383.0,889.0,221.0,19.924,0.0,1.96920973,1.0,-6.2136144,40.0490389
Carcabuey,2374.0,1203.0,1171.0,29.741765397757742,79.82041308748195,825.0,1863.0,591.0,18.371,0.0,0.0,1.0,-4.2740867,37.4438237
Carcaixent,20494.0,10163.0,10331.0,345.861534374718,59.25492708245524,7595.0,16598.0,3826.0,24.345,3.6907534812500002,0.44523107687499996,1.0,-0.4472814,39.1209651
Càrcer,1822.0,873.0,949.0,246.04108276744213,7.405267362289058,662.0,1453.0,423.0,21.871,2.91666667,3.0675706,1.0,-0.5678287,39.069966
Cárcheles,1320.0,696.0,624.0,32.58834594393042,40.505277631184896,475.0,1056.0,317.0,19.657,0.0,0.0,0.0,0.0,0.0
Cardedeu,18609.0,9066.0,9543.0,1524.3881736504757,12.2075205788541,7021.0,15355.0,2810.0,37.703,7.991263625,5.668405977,1.0,2.3558408,41.6385167
Cardeña,1473.0,746.0,727.0,2.8670064724215663,513.7763078559975,460.0,1102.0,401.0,18.117,0.0,0.0,1.0,-4.3227324,38.2703085
Cardeñadijo,1414.0,779.0,635.0,153.5628438414536,9.207956590462002,503.0,1188.0,125.0,31.216,5.69620253,3.93862224,1.0,-3.667743,42.3007027
Cardeñajimeno,1175.0,626.0,549.0,96.35374902741935,12.194647451295648,428.0,981.0,120.0,37.743,0.0,3.83174261,1.0,-3.6208379,42.3303559
Cardona,4593.0,2256.0,2337.0,69.14544642566344,66.42519843931908,1412.0,3382.0,1270.0,34.233,2.737951155,1.0235104675,1.0,1.68133,41.9142758
Cariñena,3370.0,1705.0,1665.0,40.84370247658902,82.50965989020294,1163.0,2609.0,667.0,23.857,3.86693976,2.986965155,1.0,-1.2263149,41.3382122
Cariño,3763.0,1855.0,1908.0,78.93300074278989,47.67334276650733,943.0,2622.0,1323.0,21.39,1.737967913333333,0.0,3.0,-8.3536392,43.2797442
Carlet,15851.0,7947.0,7904.0,347.4489741444202,45.62108735256013,5837.0,12556.0,2958.0,25.19,3.0508502579999996,0.841801179,1.0,-0.5202051,39.2251696
Carmona,29123.0,14675.0,14448.0,31.584209599238555,922.0746812895424,11075.0,23873.0,4747.0,24.282,2.394409100952381,0.8775232461904762,3.0,-3.8184536,39.532825333333335
Carnota,3854.0,1821.0,2033.0,53.65224572760732,71.83296705913811,865.0,2521.0,1510.0,24.408,0.7716049375,0.0,1.0,-9.0878032,42.821959
Carracedelo,3403.0,1705.0,1698.0,104.930678661707,32.43093481717733,899.0,2423.0,1049.0,24.596,0.0,1.766575275,1.0,-6.7289709,42.5572411
Carral,6574.0,3232.0,3342.0,137.0967140761472,47.95155043868245,1933.0,4779.0,1515.0,27.794,2.379840522,2.4925865199999997,9.0,-7.365850233333333,42.95029901111111
Carranque,5022.0,2630.0,2392.0,203.10791259321084,24.725772304391587,2028.0,4283.0,478.0,30.108,3.7450633633333332,4.895851946666666,1.0,-3.9000333,40.1702567
Carrascal de Barregas,1295.0,666.0,629.0,16.898605060725327,76.63354432785445,450.0,1090.0,98.0,33.226,0.0,3.83928571,1.0,-5.761562,40.9785475
Carreño,10288.0,4970.0,5318.0,154.50306232166,66.5876769392532,2790.0,7732.0,2712.0,29.618,3.116415646,1.561972263,0.0,0.0,0.0
Carrión de Calatrava,3086.0,1559.0,1527.0,32.713209681725615,94.33498057892844,1171.0,2538.0,542.0,23.63,1.51361368,0.9829822166666666,1.0,-3.8168257,39.0183225
Carrión de los Céspedes,2587.0,1256.0,1331.0,423.89105169291867,6.102983277585468,930.0,2042.0,458.0,22.572,0.0,1.4,1.0,-6.32942,37.368131
Carrión de los Condes,2011.0,963.0,1048.0,31.75230294139157,63.33398883576747,607.0,1505.0,591.0,22.636,1.584015905,0.0,1.0,-4.6017128,42.3385404
Carrizo,2266.0,1131.0,1135.0,54.14719314487996,41.848891297780376,627.0,1613.0,656.0,21.849,1.40151515,1.331388365,0.0,0.0,0.0
Carrizosa,1175.0,599.0,576.0,45.11631370050024,26.04379444207499,370.0,891.0,334.0,16.381,0.0,0.0,1.0,-2.9915308,38.8420035
Cartagena,216365.0,107458.0,108907.0,386.2377384126191,560.1860680140389,85634.0,178437.0,35506.0,29.082,3.4696073399450547,1.8071860056043956,1.0,-0.9876857,37.6152488
Cártama,27436.0,13883.0,13553.0,261.04499543002385,105.10065498403526,11317.0,22857.0,2901.0,23.917,4.37801959,4.407075205714286,1.0,-4.631539,36.7100716
Cartaya,20314.0,10337.0,9977.0,90.31847908315888,224.91521343374595,8378.0,17234.0,2199.0,22.029,3.1099638809090906,2.287543280909091,1.0,-7.1545752,37.2829111
Cartelle,2570.0,1265.0,1305.0,27.25667813375192,94.28881932672388,463.0,1410.0,1233.0,20.309,0.0,0.0,1.0,-8.0688652,42.2492308
Cartes,5750.0,2872.0,2878.0,303.68544397363587,18.93406521156536,2306.0,5178.0,600.0,26.662,4.49608642,4.0985153575,1.0,-4.069902,43.3243805
Casabermeja,3712.0,1939.0,1773.0,54.89381042655787,67.62146717736537,1258.0,2817.0,690.0,22.973,2.582291275,3.7112092199999998,1.0,-4.4287903,36.893528
Casalarreina,1090.0,538.0,552.0,134.00851359806373,8.133811582070628,386.0,892.0,253.0,23.149,3.90625,0.0,1.0,-2.9110775,42.5479528
Casar de Cáceres,4516.0,2228.0,2288.0,34.659563525080394,130.29592818536582,1656.0,3695.0,805.0,21.694,1.557031425,0.77726018,1.0,-6.4171236,39.5614765
Casarabonela,2532.0,1349.0,1183.0,22.261615346128185,113.73837705089868,862.0,1940.0,570.0,21.0,2.20765382,0.0,1.0,-4.8430732,36.7852106
Casares,7342.0,3764.0,3578.0,45.22491921673702,162.34412636126595,2431.0,5166.0,955.0,29.266,2.137256115,1.36833947,25.0,-6.925997384,42.553414912
Casariche,5384.0,2764.0,2620.0,101.79044301028782,52.89298131314594,2244.0,4594.0,936.0,18.355,0.0,0.0,1.0,-4.7588421,37.2955536
Casarrubios del Monte,6177.0,3233.0,2944.0,67.09551760449362,92.0627818450022,2081.0,4725.0,697.0,25.745,3.5543203566666666,4.31649562,1.0,-4.0377056,40.185405
Casarrubuelos,3939.0,2012.0,1927.0,737.190849234022,5.343256775491471,1568.0,3386.0,321.0,28.964,5.913222305,5.0757300700000005,1.0,-3.8308526,40.1707803
Casas de Don Pedro,1456.0,747.0,709.0,10.07339170129118,144.5392022046928,449.0,1059.0,424.0,17.292,0.0,0.0,2.0,-3.34111245,39.05701065
Casas de Fernando Alonso,1147.0,597.0,550.0,37.8826625376506,30.27770286367877,390.0,853.0,357.0,20.03,0.0,0.0,1.0,-2.3233662,39.3485644
Casas de Juan Núñez,1361.0,729.0,632.0,15.294982633307342,88.98342892107628,444.0,975.0,300.0,21.135,0.0,2.30589994,1.0,-1.5577523,39.1019705
Casas-Ibáñez,4540.0,2274.0,2266.0,43.970343783594544,103.2514101400746,1642.0,3603.0,919.0,22.304,3.0787582133333333,1.563384873333333,1.0,-1.4706566,39.2869161
Casasimarro,3089.0,1601.0,1488.0,62.2578771090868,49.61621152914556,1090.0,2374.0,698.0,20.018,0.0,2.4519184033333334,1.0,-2.0385536,39.3946426
Casatejada,1343.0,700.0,643.0,12.010096177196242,111.82258494731916,529.0,1102.0,279.0,20.686,0.0,0.0,1.0,-5.6822114,39.8861732
Casavieja,1422.0,731.0,691.0,36.23647364605857,39.242229083587176,412.0,1044.0,385.0,19.792,2.40963855,2.30031861,2.0,-4.0788428,41.78646635
Casinos,2881.0,1475.0,1406.0,69.18906060757128,41.63953050816151,947.0,2174.0,599.0,24.69,3.6211820599999998,2.8581743050000004,1.0,-0.7073505,39.6995635
Caso,1441.0,824.0,617.0,4.699651025255547,306.618511088628,243.0,944.0,609.0,21.668,0.0,0.0,0.0,0.0,0.0
Caspe,10183.0,5401.0,4782.0,20.238432386640262,503.1516179445782,3646.0,7644.0,1881.0,23.293,3.3981279383333334,1.1472222216666668,1.0,-0.0394842,41.2368318
Cassà de la Selva,10505.0,5346.0,5159.0,231.23354084813613,45.43026051267889,4152.0,8681.0,1678.0,32.255,5.066256312,4.210247357999999,1.0,2.8742461,41.8874685
Casserres,1636.0,812.0,824.0,55.7796418427546,29.329697107270068,481.0,1149.0,423.0,32.21,4.70054945,2.34739328,1.0,1.843045,42.0138199
Castalla,10752.0,5484.0,5268.0,93.82126894888373,114.60088016777912,3487.0,7997.0,1883.0,25.121,2.9604196988888893,0.5023802766666666,1.0,-0.6702617,38.5957233
Castañar de Ibor,1021.0,529.0,492.0,6.9408293987043646,147.10057564454598,280.0,714.0,339.0,17.831,0.0,0.0,1.0,-5.4170221,39.6261851
Castañeda,3029.0,1548.0,1481.0,157.63518744432042,19.21525294642668,1066.0,2433.0,376.0,26.268,5.61295404,0.0,1.0,-5.9234396,43.5397115
Castellanos de Moriscos,2809.0,1453.0,1356.0,203.15765955629053,13.82669994395012,1164.0,2471.0,144.0,26.177,4.75604268,4.61864407,1.0,-5.5901998,41.018499
Castellar,3267.0,1648.0,1619.0,20.761417148998685,157.35920031632168,1351.0,2781.0,583.0,17.822,0.0,0.40750706,3.0,-0.5073611333333333,40.83372533333333
Castellar de la Frontera,3070.0,1528.0,1542.0,17.007763339245557,180.5058042474021,1223.0,2602.0,411.0,23.905,0.0,4.447208294999999,0.0,0.0,0.0
Castellar de Santiago,1833.0,936.0,897.0,19.19322023493152,95.50247314225852,615.0,1396.0,522.0,18.095,0.0,0.0,1.0,-3.2755109,38.5391616
Castellar del Vallès,24659.0,12192.0,12467.0,545.8039513183339,45.17922587485615,9039.0,20245.0,3791.0,35.274,4.74790445,4.4853098750000004,1.0,2.0875963,41.6138122
Castellbell i el Vilar,3853.0,1985.0,1868.0,135.39774175589133,28.456900019400443,1223.0,2900.0,699.0,29.799,6.15326079,4.51853001,0.0,0.0,0.0
Castellbisbal,12610.0,6348.0,6262.0,406.99096369775503,30.98348888493899,4983.0,10725.0,1607.0,34.724,6.581819186666666,4.760932021666666,1.0,1.9832978,41.4765136
Castelldefels,67226.0,32930.0,34296.0,5195.992434910413,12.9380480903566,25280.0,56770.0,9605.0,45.548,11.721366474054054,5.856444631621621,1.0,1.9824173,41.2861022
Castellet i la Gornal,2452.0,1278.0,1174.0,52.01059750693138,47.1442382424702,746.0,1803.0,444.0,29.788,0.0,5.29807692,0.0,0.0,0.0
Castellgalí,2179.0,1143.0,1036.0,126.68874714642628,17.199633346137063,723.0,1679.0,374.0,33.225,6.33761826,6.85606061,1.0,1.8378043,41.6732765
Castellnou de Bages,1420.0,752.0,668.0,48.73472910101169,29.13733237455345,502.0,1140.0,179.0,37.215,0.0,5.0925169,1.0,1.8365127,41.8348967
Castelló de Rugat,2316.0,1185.0,1131.0,121.74929996672516,19.022696644933298,841.0,1829.0,446.0,23.291,2.37086585,2.41935484,1.0,-0.3818165,38.874757
Castellterçol,2632.0,1333.0,1299.0,82.671998102268,31.83665643044128,803.0,1870.0,548.0,33.306,5.38534884,4.02902254,1.0,2.1230793,41.7503071
Castellvell del Camp,2873.0,1441.0,1432.0,555.468306525594,5.172212286908619,1126.0,2458.0,410.0,43.731,0.0,2.306079665,1.0,1.0978312,41.1802558
Castellví de la Marca,1597.0,820.0,777.0,55.726520568916094,28.65780931047033,518.0,1201.0,333.0,31.529,4.99605888,3.77415289,0.0,0.0,0.0
Castellví de Rosanes,1996.0,986.0,1010.0,121.695392846745,16.401606940976215,713.0,1577.0,288.0,39.455,8.00948906,5.06362613,1.0,1.8994527,41.450038
Castilblanco de los Arroyos,5059.0,2562.0,2497.0,15.636129642144622,323.5455394514187,1712.0,3881.0,929.0,19.816,0.0,1.9001393866666667,1.0,-5.9889206,37.6750431
Castilleja de Guzmán,2860.0,1464.0,1396.0,1405.002410556903,2.035583696163466,1226.0,2625.0,201.0,32.574,0.0,4.13574442,1.0,-6.0573214,37.4084162
Castilleja de la Cuesta,17366.0,8395.0,8971.0,7994.940254209065,2.1721237992813505,6846.0,14664.0,2686.0,26.55,5.5319739925,3.6105445933333336,1.0,-6.054127,37.3867839
Castilléjar,1288.0,671.0,617.0,9.807734420685556,131.32492630341525,340.0,884.0,453.0,17.233,0.0,0.0,1.0,-2.6425103,37.717227
Castillo de Locubín,4019.0,1994.0,2025.0,39.18984608066294,102.55207411960356,1223.0,2864.0,1256.0,17.442,0.0,0.0,1.0,-3.9422486,37.5279563
Castrelo de Miño,1321.0,668.0,653.0,33.23746901273545,39.7443018147332,217.0,757.0,623.0,20.304,0.0,0.0,0.0,0.0,0.0
Castril,2018.0,1048.0,970.0,8.296219060420482,243.2433359465463,645.0,1492.0,632.0,16.199,0.0,0.0,1.0,-2.7814472,37.7969475
